#version,serial,flight,call,time,state,state_name,acceleration,pressure,altitude,height,speed,temperature,drogue_voltage,main_voltage,battery_voltage,accel_x,accel_y,accel_z,gyro_roll,gyro_pitch,gyro_yaw,mag_x,mag_y,mag_z,tilt,pyro,igniter_a,igniter_b,igniter_c,igniter_d,connected,locked,nsat,latitude,longitude,altitude,year,month,day,hour,minute,second,pad_dist,pad_range,pad_az,pad_el,pdop,hdop,vdop,sat01,sat02,sat03,sat04,sat05,sat06,sat07,sat08,sat09,sat10,sat11,sat12,sat13,sat14,sat15,sat16,sat17,sat18,sat19,sat20,sat21,sat22,sat23,sat24,sat25,sat26,sat27,sat28,sat29,sat30,sat31,sat32
6,11065,1,Zephyr2,-0.3,3,   boost,-0.98,101561,-19.63,0.17,0,38.3,0,0,4.18,9.94,-0.59,0.22,-2.29,0.39,0.28,-0.4,0.1,0.3,2.51,4.19,0,0,4.17,0,1,1,11,27.9333534,-80.709537,10,2025,4,12,19,30,38,0,0,0,0,1.5,0.8,1.2,0,0,0,0,39,0,0,0,0,0,35,38,0,31,0,0,32,0,28,37,0,33,0,37,32,0,0,0,0,0,0,0
6,11065,1,Zephyr2,-0.29,3,   boost,0.98,101562,-19.71,0.08,0,38.3,0,0,4.18,9.82,-0.31,0.19,-2.53,0.57,0.53,-0.4,0.1,0.29,2.51,4.19,0,0,4.17,0,1,1,11,27.9333534,-80.709537,10,2025,4,12,19,30,38,0,0,0,0,1.5,0.8,1.2,0,0,0,0,39,0,0,0,0,0,35,38,0,31,0,0,32,0,28,37,0,33,0,37,32,0,0,0,0,0,0,0
6,11065,1,Zephyr2,-0.28,3,   boost,-0.49,101562,-19.71,0.08,0,38.3,0,0,4.18,9.91,-0.5,0.13,-2.23,0.08,0.59,-0.4,0.1,0.29,2.51,4.19,0,0,4.17,0,1,1,11,27.9333534,-80.709537,10,2025,4,12,19,30,38,0,0,0,0,1.5,0.8,1.2,0,0,0,0,39,0,0,0,0,0,35,38,0,31,0,0,32,0,28,37,0,33,0,37,32,0,0,0,0,0,0,0
6,11065,1,Zephyr2,-0.27,3,   boost,-0.98,101550,-18.71,1.08,0,38.3,0,0,4.18,9.71,-0.4,0.22,-2.29,0.39,0.34,-0.4,0.1,0.3,2.51,4.19,0,0,4.17,0,1,1,11,27.9333534,-80.709537,10,2025,4,12,19,30,38,0,0,0,0,1.5,0.8,1.2,0,0,0,0,39,0,0,0,0,0,35,38,0,31,0,0,32,0,28,37,0,33,0,37,32,0,0,0,0,0,0,0
6,11065,1,Zephyr2,-0.26,3,   boost,0,101550,-18.71,1.08,0,38.3,0,0,4.18,9.9,-0.37,0.14,-2.72,0.39,0.47,-0.4,0.1,0.3,2.51,4.19,0,0,4.17,0,1,1,11,27.9333534,-80.709537,10,2025,4,12,19,30,38,0,0,0,0,1.5,0.8,1.2,0,0,0,0,39,0,0,0,0,0,35,38,0,31,0,0,32,0,28,37,0,33,0,37,32,0,0,0,0,0,0,0
6,11065,1,Zephyr2,-0.25,3,   boost,0,101554,-19.05,0.75,0,38.3,0,0,4.18,9.71,-0.47,0.11,-2.66,0.2,0.59,-0.4,0.1,0.29,2.51,4.19,0,0,4.17,0,1,1,11,27.9333534,-80.709537,10,2025,4,12,19,30,38,0,0,0,0,1.5,0.8,1.2,0,0,0,0,39,0,0,0,0,0,35,38,0,31,0,0,32,0,28,37,0,33,0,37,32,0,0,0,0,0,0,0
6,11065,1,Zephyr2,-0.24,3,   boost,0.98,101554,-19.05,0.75,0,38.3,0,0,4.18,9.99,-0.45,0.16,-2.72,0.51,0.65,-0.4,0.1,0.29,2.51,4.19,0,0,4.17,0,1,1,11,27.9333534,-80.709537,10,2025,4,12,19,30,38,0,0,0,0,1.5,0.8,1.2,0,0,0,0,39,0,0,0,0,0,35,38,0,31,0,0,32,0,28,37,0,33,0,37,32,0,0,0,0,0,0,0
6,11065,1,Zephyr2,-0.23,3,   boost,-0.98,101565,-19.96,-0.17,0,38.3,0,0,4.18,9.76,-0.47,0.02,-3.33,0.51,0.89,-0.4,0.1,0.29,2.51,4.19,0,0,4.17,0,1,1,11,27.9333534,-80.709537,10,2025,4,12,19,30,38,0,0,0,0,1.5,0.8,1.2,0,0,0,0,39,0,0,0,0,0,35,38,0,31,0,0,32,0,28,37,0,33,0,37,32,0,0,0,0,0,0,0
6,11065,1,Zephyr2,-0.22,3,   boost,0,101565,-19.96,-0.17,0,38.3,0,0,4.18,9.96,-0.5,0.22,-3.02,0.45,0.4,-0.4,0.1,0.29,2.51,4.19,0,0,4.17,0,1,1,11,27.9333534,-80.709537,10,2025,4,12,19,30,38,0,0,0,0,1.5,0.8,1.2,0,0,0,0,39,0,0,0,0,0,35,38,0,31,0,0,32,0,28,37,0,33,0,37,32,0,0,0,0,0,0,0
6,11065,1,Zephyr2,-0.21,3,   boost,-0.49,101563,-19.79,0,0,38.3,0,0,4.18,9.77,-0.39,0.09,-3.33,0.63,0.47,-0.4,0.1,0.29,2.51,4.19,0,0,4.17,0,1,1,11,27.9333534,-80.709537,10,2025,4,12,19,30,38,0,0,0,0,1.5,0.8,1.2,0,0,0,0,39,0,0,0,0,0,35,38,0,31,0,0,32,0,28,37,0,33,0,37,32,0,0,0,0,0,0,0
6,11065,1,Zephyr2,-0.2,3,   boost,0.49,101563,-19.79,0,0,38.3,0,0,4.18,9.94,-0.4,0.32,-3.33,0.69,0.77,-0.4,0.1,0.3,2.51,4.19,0,0,4.17,0,1,1,11,27.9333534,-80.709537,10,2025,4,12,19,30,38,0,0,0,0,1.5,0.8,1.2,0,0,0,0,39,0,0,0,0,0,35,38,0,31,0,0,32,0,28,37,0,33,0,37,32,0,0,0,0,0,0,0
6,11065,1,Zephyr2,-0.19,3,   boost,0,101557,-19.29,0.5,0,38.3,0,0,4.18,9.71,-0.38,0.21,-3.39,0.33,0.71,-0.4,0.1,0.3,2.51,4.19,0,0,4.17,0,1,1,11,27.9333534,-80.709537,10,2025,4,12,19,30,38,0,0,0,0,1.5,0.8,1.2,0,0,0,0,39,0,0,0,0,0,35,38,0,31,0,0,32,0,28,37,0,33,0,37,32,0,0,0,0,0,0,0
6,11065,1,Zephyr2,-0.18,3,   boost,-1.96,101557,-19.29,0.5,0,38.3,0,0,4.18,9.89,-0.44,0.19,-4,0.33,0.47,-0.4,0.1,0.3,2.51,4.19,0,0,4.17,0,1,1,11,27.9333534,-80.709537,10,2025,4,12,19,30,38,0,0,0,0,1.5,0.8,1.2,0,0,0,0,39,0,0,0,0,0,35,38,0,31,0,0,32,0,28,37,0,33,0,37,32,0,0,0,0,0,0,0
6,11065,1,Zephyr2,-0.17,3,   boost,0.49,101557,-19.29,0.5,0,38.3,0,0,4.18,9.78,-0.38,0.24,-3.82,0.75,0.65,-0.4,0.1,0.3,2.51,4.19,0,0,4.17,0,1,1,11,27.9333534,-80.709537,10,2025,4,12,19,30,38,0,0,0,0,1.5,0.8,1.2,0,0,0,0,39,0,0,0,0,0,35,38,0,31,0,0,32,0,28,37,0,33,0,37,32,0,0,0,0,0,0,0
6,11065,1,Zephyr2,-0.16,3,   boost,-1.47,101557,-19.29,0.5,0,38.3,0,0,4.18,9.9,-0.37,0.08,-4.24,0.39,0.65,-0.4,0.1,0.3,2.51,4.19,0,0,4.17,0,1,1,11,27.9333534,-80.709537,10,2025,4,12,19,30,38,0,0,0,0,1.5,0.8,1.2,0,0,0,0,39,0,0,0,0,0,35,38,0,31,0,0,32,0,28,37,0,33,0,37,32,0,0,0,0,0,0,0
6,11065,1,Zephyr2,-0.15,3,   boost,-0.98,101557,-19.29,0.5,0,38.3,0,0,4.18,9.84,-0.42,0.22,-4.55,0.33,0.71,-0.4,0.1,0.3,2.51,4.19,0,0,4.17,0,1,1,11,27.9333534,-80.709537,10,2025,4,12,19,30,38,0,0,0,0,1.5,0.8,1.2,0,0,0,0,39,0,0,0,0,0,35,38,0,31,0,0,32,0,28,37,0,33,0,37,32,0,0,0,0,0,0,0
6,11065,1,Zephyr2,-0.14,3,   boost,-0.49,101557,-19.29,0.5,0,38.3,0,0,4.18,9.87,-0.34,-0.01,-4.79,0.45,0.95,-0.4,0.1,0.3,2.51,4.19,0,0,4.17,0,1,1,11,27.9333534,-80.709537,10,2025,4,12,19,30,38,0,0,0,0,1.5,0.8,1.2,0,0,0,0,39,0,0,0,0,0,35,38,0,31,0,0,32,0,28,37,0,33,0,37,32,0,0,0,0,0,0,0
6,11065,1,Zephyr2,-0.13,3,   boost,0,101556,-19.21,0.58,0,38.3,0,0,4.18,9.76,-0.36,0.17,-5.04,0.39,0.83,-0.4,0.1,0.3,2.51,4.19,0,0,4.17,0,1,1,11,27.9333534,-80.709537,10,2025,4,12,19,30,38,0,0,0,0,1.5,0.8,1.2,0,0,0,0,39,0,0,0,0,0,35,38,0,31,0,0,32,0,28,37,0,33,0,37,32,0,0,0,0,0,0,0
6,11065,1,Zephyr2,-0.12,3,   boost,-0.49,101556,-19.21,0.58,0,38.3,0,0,4.18,9.92,-0.49,-0.06,-5.16,0.14,0.65,-0.4,0.1,0.3,2.51,4.19,0,0,4.17,0,1,1,11,27.9333534,-80.709537,10,2025,4,12,19,30,38,0,0,0,0,1.5,0.8,1.2,0,0,0,0,39,0,0,0,0,0,35,38,0,31,0,0,32,0,28,37,0,33,0,37,32,0,0,0,0,0,0,0
6,11065,1,Zephyr2,-0.11,3,   boost,0.98,101560,-19.54,0.25,0,38.3,0,0,4.18,9.84,-0.5,0.11,-5.34,0.33,1.02,-0.4,0.1,0.3,2.51,4.19,0,0,4.17,0,1,1,11,27.9333534,-80.709537,10,2025,4,12,19,30,38,0,0,0,0,1.5,0.8,1.2,0,0,0,0,39,0,0,0,0,0,35,38,0,31,0,0,32,0,28,37,0,33,0,37,32,0,0,0,0,0,0,0
6,11065,1,Zephyr2,-0.1,3,   boost,-0.98,101560,-19.54,0.25,0,38.3,0,0,4.18,9.9,-0.47,0.08,-5.4,0.51,0.77,-0.4,0.1,0.3,2.51,4.19,0,0,4.17,0,1,1,11,27.9333534,-80.709537,10,2025,4,12,19,30,38,0,0,0,0,1.5,0.8,1.2,0,0,0,0,39,0,0,0,0,0,35,38,0,31,0,0,32,0,28,37,0,33,0,37,32,0,0,0,0,0,0,0
6,11065,1,Zephyr2,-0.09,3,   boost,-0.49,101549,-18.63,1.16,0,38.2,0,0,4.18,9.8,-0.42,0.14,-5.46,0.39,1.02,-0.4,0.1,0.3,2.51,4.19,0,0,4.17,0,1,1,11,27.9333534,-80.709537,10,2025,4,12,19,30,38,0,0,0,0,1.5,0.8,1.2,0,0,0,0,39,0,0,0,0,0,35,38,0,31,0,0,32,0,28,37,0,33,0,37,32,0,0,0,0,0,0,0
6,11065,1,Zephyr2,-0.08,3,   boost,-0.49,101549,-18.63,1.16,0.03,38.2,0,0,4.18,9.84,-0.23,0.2,-5.4,0.33,0.71,-0.4,0.1,0.3,2.51,4.19,0,0,4.17,0,1,1,11,27.9333534,-80.709537,10,2025,4,12,19,30,38,0,0,0,0,1.5,0.8,1.2,0,0,0,0,39,0,0,0,0,0,35,38,0,31,0,0,32,0,28,37,0,33,0,37,32,0,0,0,0,0,0,0
6,11065,1,Zephyr2,-0.07,3,   boost,0.98,101556,-19.21,0.58,0.1,38.3,0,0,4.18,9.81,-0.38,0.2,-4.91,0.26,0.77,-0.4,0.1,0.3,2.51,4.19,0,0,4.17,0,1,1,11,27.9333534,-80.709537,10,2025,4,12,19,30,38,0,0,0,0,1.5,0.8,1.2,0,0,0,0,39,0,0,0,0,0,35,38,0,31,0,0,32,0,28,37,0,33,0,37,32,0,0,0,0,0,0,0
6,11065,1,Zephyr2,-0.06,3,   boost,-0.98,101556,-19.21,0.58,0.29,38.3,0,0,4.18,9.83,-0.32,0.11,-5.22,0.39,0.53,-0.4,0.1,0.3,2.51,4.19,0,0,4.17,0,1,1,11,27.9333534,-80.709537,10,2025,4,12,19,30,38,0,0,0,0,1.5,0.8,1.2,0,0,0,0,39,0,0,0,0,0,35,38,0,31,0,0,32,0,28,37,0,33,0,37,32,0,0,0,0,0,0,0
6,11065,1,Zephyr2,-0.05,3,   boost,45.11,101566,-20.04,-0.25,0.63,38.3,0,0,4.18,9.86,-0.45,0.11,-5.28,0.26,0.53,-0.4,0.1,0.3,2.51,4.19,0,0,4.17,0,1,1,11,27.9333534,-80.709537,10,2025,4,12,19,30,38,0,0,0,0,1.5,0.8,1.2,0,0,0,0,39,0,0,0,0,0,35,38,0,31,0,0,32,0,28,37,0,33,0,37,32,0,0,0,0,0,0,0
6,11065,1,Zephyr2,-0.04,3,   boost,81.89,101566,-20.04,-0.25,1.17,38.3,0,0,4.18,15.46,-1.77,-0.35,-4.73,0.26,-0.08,-0.4,0.1,0.3,2.51,4.19,0,0,4.17,0,1,1,11,27.9333534,-80.709537,10,2025,4,12,19,30,38,0,0,0,0,1.5,0.8,1.2,0,0,0,0,39,0,0,0,0,0,35,38,0,31,0,0,32,0,28,37,0,33,0,37,32,0,0,0,0,0,0,0
6,11065,1,Zephyr2,-0.03,3,   boost,86.3,101636,-25.86,-6.06,1.91,38.3,0,0,4.18,79,3.16,-1.16,-4.3,4.48,-8.51,-0.4,0.11,0.3,2.51,4.19,0,0,4.17,0,1,1,11,27.9333534,-80.709537,10,2025,4,12,19,30,38,0,0,0,0,1.5,0.8,1.2,0,0,0,0,39,0,0,0,0,0,35,38,0,31,0,0,32,0,28,37,0,33,0,37,32,0,0,0,0,0,0,0
6,11065,1,Zephyr2,-0.02,3,   boost,113.76,101636,-25.86,-6.06,2.83,38.3,0,0,4.18,96.83,-8.04,-6.26,-6.5,5.88,-13.21,-0.4,0.11,0.3,2.51,4.19,0,0,4.17,0,1,1,11,27.9333534,-80.709537,10,2025,4,12,19,30,38,0,0,0,0,1.5,0.8,1.2,0,0,0,0,39,0,0,0,0,0,35,38,0,31,0,0,32,0,28,37,0,33,0,37,32,0,0,0,0,0,0,0
6,11065,1,Zephyr2,-0.01,3,   boost,113.76,101574,-20.71,-0.91,3.89,38.3,0,0,4.18,114.19,5.73,0.12,4.18,-2.54,-14.79,-0.4,0.11,0.29,2.51,4.19,0,0,4.17,0,1,1,11,27.9333534,-80.709537,10,2025,4,12,19,30,38,0,0,0,0,1.5,0.8,1.2,0,0,0,0,39,0,0,0,0,0,35,38,0,31,0,0,32,0,28,37,0,33,0,37,32,0,0,0,0,0,0,0
6,11065,1,Zephyr2,0,3,   boost,122.58,101574,-20.71,-0.91,5.05,38.3,0,0,4.18,128.68,-2.47,-0.62,6.68,2.89,-8.75,-0.41,0.11,0.29,2.51,4.19,0,0,4.17,0,1,1,11,27.9333534,-80.709537,10,2025,4,12,19,30,38,0,0,0,0,1.5,0.8,1.2,0,0,0,0,39,0,0,0,0,0,35,38,0,31,0,0,32,0,28,37,0,33,0,37,32,0,0,0,0,0,0,0
6,11065,1,Zephyr2,0,3,   boost,122.58,101574,-20.71,-0.91,5.05,38.3,0,0,4.18,128.68,-2.47,-0.62,6.68,2.89,-8.75,-0.41,0.11,0.29,2.51,4.19,0,0,4.17,0,1,1,11,27.9333534,-80.709537,10,2025,4,12,19,30,38,0,0,0,0,1.5,0.8,1.2,0,0,0,0,39,0,0,0,0,0,35,38,0,31,0,0,32,0,28,37,0,33,0,37,32,0,0,0,0,0,0,0
6,11065,1,Zephyr2,0,3,   boost,122.58,101574,-20.71,-0.91,5.05,38.3,0,0,4.18,128.68,-2.47,-0.62,6.68,2.89,-8.75,-0.41,0.11,0.29,2.51,4.19,0,0,4.17,0,1,1,11,27.9333534,-80.709537,10,2025,4,12,19,30,38,0,0,0,0,1.5,0.8,1.2,0,0,0,0,39,0,0,0,0,0,35,38,0,31,0,0,32,0,28,37,0,33,0,37,32,0,0,0,0,0,0,0
6,11065,1,Zephyr2,0,3,   boost,122.58,101574,-20.71,-0.91,5.05,38.3,0,0,4.18,128.68,-2.47,-0.62,6.68,2.89,-8.75,-0.41,0.11,0.29,2.51,4.19,0,0,4.17,0,1,1,11,27.9333534,-80.709537,10,2025,4,12,19,30,38,0,0,0,0,1.5,0.8,1.2,0,0,0,0,39,0,0,0,0,0,35,38,0,31,0,0,32,0,28,37,0,33,0,37,32,0,0,0,0,0,0,0
6,11065,1,Zephyr2,0,3,   boost,122.58,101574,-20.71,-0.91,5.05,38.3,0,0,4.18,128.68,-2.47,-0.62,6.68,2.89,-8.75,-0.41,0.11,0.29,2.51,4.19,0,0,4.17,0,1,1,11,27.9333534,-80.709537,10,2025,4,12,19,30,38,0,0,0,0,1.5,0.8,1.2,0,0,0,0,39,0,0,0,0,0,35,38,0,31,0,0,32,0,28,37,0,33,0,37,32,0,0,0,0,0,0,0
6,11065,1,Zephyr2,0,3,   boost,122.58,101574,-20.71,-0.91,5.05,38.3,0,0,4.18,128.68,-2.47,-0.62,6.68,2.89,-8.75,-0.41,0.11,0.29,2.5,4.19,0,0,4.17,0,1,1,11,27.9333534,-80.709537,10,2025,4,12,19,30,38,0,0,0,0,1.5,0.8,1.2,0,0,0,0,39,0,0,0,0,0,35,38,0,31,0,0,32,0,28,37,0,33,0,37,32,0,0,0,0,0,0,0
6,11065,1,Zephyr2,0,3,   boost,122.58,101574,-20.71,-0.91,5.05,38.3,0,0,4.18,128.68,-2.47,-0.62,6.68,2.89,-8.75,-0.41,0.11,0.29,2.5,4.19,0,0,4.17,0,1,1,11,27.9333534,-80.709537,10,2025,4,12,19,30,38,0,0,0,0,1.5,0.8,1.2,0,0,0,0,39,0,0,0,0,0,35,38,0,31,0,0,32,0,28,37,0,33,0,37,32,0,0,0,0,0,0,0
6,11065,1,Zephyr2,0,3,   boost,122.58,101574,-20.71,-0.91,5.05,38.3,0,0,4.18,128.68,-2.47,-0.62,6.68,2.89,-8.75,-0.41,0.11,0.29,2.49,4.19,0,0,4.17,0,1,1,11,27.9333534,-80.709537,10,2025,4,12,19,30,38,0,0,0,0,1.5,0.8,1.2,0,0,0,0,39,0,0,0,0,0,35,38,0,31,0,0,32,0,28,37,0,33,0,37,32,0,0,0,0,0,0,0
6,11065,1,Zephyr2,0,3,   boost,122.58,101574,-20.71,-0.91,5.05,38.3,0,0,4.18,128.68,-2.47,-0.62,6.68,2.89,-8.75,-0.41,0.11,0.29,2.49,4.19,0,0,4.17,0,1,1,11,27.9333534,-80.709537,10,2025,4,12,19,30,38,0,0,0,0,1.5,0.8,1.2,0,0,0,0,39,0,0,0,0,0,35,38,0,31,0,0,32,0,28,37,0,33,0,37,32,0,0,0,0,0,0,0
6,11065,1,Zephyr2,0,3,   boost,122.58,101574,-20.71,-0.91,5.05,38.3,0,0,4.18,128.68,-2.47,-0.62,6.68,2.89,-8.75,-0.41,0.11,0.29,2.48,4.19,0,0,4.17,0,1,1,11,27.9333534,-80.709537,10,2025,4,12,19,30,38,0,0,0,0,1.5,0.8,1.2,0,0,0,0,39,0,0,0,0,0,35,38,0,31,0,0,32,0,28,37,0,33,0,37,32,0,0,0,0,0,0,0
6,11065,1,Zephyr2,0,3,   boost,122.58,101574,-20.71,-0.91,5.05,38.3,0,0,4.18,128.68,-2.47,-0.62,6.68,2.89,-8.75,-0.41,0.11,0.29,2.47,4.19,0,0,4.17,0,1,1,11,27.9333534,-80.709537,10,2025,4,12,19,30,38,0,0,0,0,1.5,0.8,1.2,0,0,0,0,39,0,0,0,0,0,35,38,0,31,0,0,32,0,28,37,0,33,0,37,32,0,0,0,0,0,0,0
6,11065,1,Zephyr2,0,3,   boost,122.58,101574,-20.71,-0.91,5.05,38.3,0,0,4.18,128.68,-2.47,-0.62,6.68,2.89,-8.75,-0.41,0.11,0.29,2.46,4.19,0,0,4.17,0,1,1,11,27.9333534,-80.709537,10,2025,4,12,19,30,38,0,0,0,0,1.5,0.8,1.2,0,0,0,0,39,0,0,0,0,0,35,38,0,31,0,0,32,0,28,37,0,33,0,37,32,0,0,0,0,0,0,0
6,11065,1,Zephyr2,0,3,   boost,122.58,101574,-20.71,-0.91,5.05,38.3,0,0,4.18,128.68,-2.47,-0.62,6.68,2.89,-8.75,-0.41,0.11,0.29,2.46,4.19,0,0,4.17,0,1,1,11,27.9333534,-80.709537,10,2025,4,12,19,30,38,0,0,0,0,1.5,0.8,1.2,0,0,0,0,39,0,0,0,0,0,35,38,0,31,0,0,32,0,28,37,0,33,0,37,32,0,0,0,0,0,0,0
6,11065,1,Zephyr2,0,3,   boost,122.58,101574,-20.71,-0.91,5.05,38.3,0,0,4.18,128.68,-2.47,-0.62,6.68,2.89,-8.75,-0.41,0.11,0.29,2.45,4.19,0,0,4.17,0,1,1,11,27.9333534,-80.709537,10,2025,4,12,19,30,38,0,0,0,0,1.5,0.8,1.2,0,0,0,0,39,0,0,0,0,0,35,38,0,31,0,0,32,0,28,37,0,33,0,37,32,0,0,0,0,0,0,0
6,11065,1,Zephyr2,0,3,   boost,122.58,101574,-20.71,-0.91,5.05,38.3,0,0,4.18,128.68,-2.47,-0.62,6.68,2.89,-8.75,-0.41,0.11,0.29,2.44,4.19,0,0,4.17,0,1,1,11,27.9333534,-80.709537,10,2025,4,12,19,30,38,0,0,0,0,1.5,0.8,1.2,0,0,0,0,39,0,0,0,0,0,35,38,0,31,0,0,32,0,28,37,0,33,0,37,32,0,0,0,0,0,0,0
6,11065,1,Zephyr2,0,3,   boost,122.58,101574,-20.71,-0.91,5.05,38.3,0,0,4.18,128.68,-2.47,-0.62,6.68,2.89,-8.75,-0.41,0.11,0.29,2.43,4.19,0,0,4.17,0,1,1,11,27.9333534,-80.709537,10,2025,4,12,19,30,38,0,0,0,0,1.5,0.8,1.2,0,0,0,0,39,0,0,0,0,0,35,38,0,31,0,0,32,0,28,37,0,33,0,37,32,0,0,0,0,0,0,0
6,11065,1,Zephyr2,0,3,   boost,122.58,101574,-20.71,-0.91,5.05,38.3,0,0,4.18,128.68,-2.47,-0.62,6.68,2.89,-8.75,-0.41,0.11,0.29,2.43,4.19,0,0,4.17,0,1,1,11,27.9333534,-80.709537,10,2025,4,12,19,30,38,0,0,0,0,1.5,0.8,1.2,0,0,0,0,39,0,0,0,0,0,35,38,0,31,0,0,32,0,28,37,0,33,0,37,32,0,0,0,0,0,0,0
6,11065,1,Zephyr2,0,3,   boost,122.58,101574,-20.71,-0.91,5.05,38.3,0,0,4.18,128.68,-2.47,-0.62,6.68,2.89,-8.75,-0.41,0.11,0.29,2.42,4.19,0,0,4.17,0,1,1,11,27.9333534,-80.709537,10,2025,4,12,19,30,38,0,0,0,0,1.5,0.8,1.2,0,0,0,0,39,0,0,0,0,0,35,38,0,31,0,0,32,0,28,37,0,33,0,37,32,0,0,0,0,0,0,0
6,11065,1,Zephyr2,0,3,   boost,122.58,101574,-20.71,-0.91,5.05,38.3,0,0,4.18,128.68,-2.47,-0.62,6.68,2.89,-8.75,-0.41,0.11,0.29,2.41,4.19,0,0,4.17,0,1,1,11,27.9333534,-80.709537,10,2025,4,12,19,30,38,0,0,0,0,1.5,0.8,1.2,0,0,0,0,39,0,0,0,0,0,35,38,0,31,0,0,32,0,28,37,0,33,0,37,32,0,0,0,0,0,0,0
6,11065,1,Zephyr2,0,3,   boost,122.58,101574,-20.71,-0.91,5.05,38.3,0,0,4.18,128.68,-2.47,-0.62,6.68,2.89,-8.75,-0.41,0.11,0.29,2.4,4.19,0,0,4.17,0,1,1,11,27.9333534,-80.709537,10,2025,4,12,19,30,38,0,0,0,0,1.5,0.8,1.2,0,0,0,0,39,0,0,0,0,0,35,38,0,31,0,0,32,0,28,37,0,33,0,37,32,0,0,0,0,0,0,0
6,11065,1,Zephyr2,0,3,   boost,122.58,101574,-20.71,-0.91,5.05,38.3,0,0,4.18,128.68,-2.47,-0.62,6.68,2.89,-8.75,-0.41,0.11,0.29,2.39,4.19,0,0,4.17,0,1,1,11,27.9333534,-80.709537,10,2025,4,12,19,30,38,0,0,0,0,1.5,0.8,1.2,0,0,0,0,39,0,0,0,0,0,35,38,0,31,0,0,32,0,28,37,0,33,0,37,32,0,0,0,0,0,0,0
6,11065,1,Zephyr2,0,3,   boost,122.58,101574,-20.71,-0.91,5.05,38.3,0,0,4.18,128.68,-2.47,-0.62,6.68,2.89,-8.75,-0.41,0.11,0.29,2.38,4.19,0,0,4.17,0,1,1,11,27.9333534,-80.709537,10,2025,4,12,19,30,38,0,0,0,0,1.5,0.8,1.2,0,0,0,0,39,0,0,0,0,0,35,38,0,31,0,0,32,0,28,37,0,33,0,37,32,0,0,0,0,0,0,0
6,11065,1,Zephyr2,0,3,   boost,122.58,101574,-20.71,-0.91,5.05,38.3,0,0,4.18,128.68,-2.47,-0.62,6.68,2.89,-8.75,-0.41,0.11,0.29,2.38,4.19,0,0,4.17,0,1,1,11,27.9333534,-80.709537,10,2025,4,12,19,30,38,0,0,0,0,1.5,0.8,1.2,0,0,0,0,39,0,0,0,0,0,35,38,0,31,0,0,32,0,28,37,0,33,0,37,32,0,0,0,0,0,0,0
6,11065,1,Zephyr2,0,3,   boost,122.58,101574,-20.71,-0.91,5.05,38.3,0,0,4.18,128.68,-2.47,-0.62,6.68,2.89,-8.75,-0.41,0.11,0.29,2.37,4.19,0,0,4.17,0,1,1,11,27.9333534,-80.709537,10,2025,4,12,19,30,38,0,0,0,0,1.5,0.8,1.2,0,0,0,0,39,0,0,0,0,0,35,38,0,31,0,0,32,0,28,37,0,33,0,37,32,0,0,0,0,0,0,0
6,11065,1,Zephyr2,0,3,   boost,122.58,101574,-20.71,-0.91,5.05,38.3,0,0,4.18,128.68,-2.47,-0.62,6.68,2.89,-8.75,-0.41,0.11,0.29,2.36,4.19,0,0,4.17,0,1,1,11,27.9333534,-80.709537,10,2025,4,12,19,30,38,0,0,0,0,1.5,0.8,1.2,0,0,0,0,39,0,0,0,0,0,35,38,0,31,0,0,32,0,28,37,0,33,0,37,32,0,0,0,0,0,0,0
6,11065,1,Zephyr2,0,3,   boost,122.58,101574,-20.71,-0.91,5.05,38.3,0,0,4.18,128.68,-2.47,-0.62,6.68,2.89,-8.75,-0.41,0.11,0.29,2.35,4.19,0,0,4.17,0,1,1,11,27.9333534,-80.709537,10,2025,4,12,19,30,38,0,0,0,0,1.5,0.8,1.2,0,0,0,0,39,0,0,0,0,0,35,38,0,31,0,0,32,0,28,37,0,33,0,37,32,0,0,0,0,0,0,0
6,11065,1,Zephyr2,0,3,   boost,122.58,101574,-20.71,-0.91,5.05,38.3,0,0,4.18,128.68,-2.47,-0.62,6.68,2.89,-8.75,-0.41,0.11,0.29,2.34,4.19,0,0,4.17,0,1,1,11,27.9333534,-80.709537,10,2025,4,12,19,30,38,0,0,0,0,1.5,0.8,1.2,0,0,0,0,39,0,0,0,0,0,35,38,0,31,0,0,32,0,28,37,0,33,0,37,32,0,0,0,0,0,0,0
6,11065,1,Zephyr2,0,3,   boost,122.58,101574,-20.71,-0.91,5.05,38.3,0,0,4.18,128.68,-2.47,-0.62,6.68,2.89,-8.75,-0.41,0.11,0.29,2.33,4.19,0,0,4.17,0,1,1,11,27.9333534,-80.709537,10,2025,4,12,19,30,38,0,0,0,0,1.5,0.8,1.2,0,0,0,0,39,0,0,0,0,0,35,38,0,31,0,0,32,0,28,37,0,33,0,37,32,0,0,0,0,0,0,0
6,11065,1,Zephyr2,0,3,   boost,122.58,101574,-20.71,-0.91,5.05,38.3,0,0,4.18,128.68,-2.47,-0.62,6.68,2.89,-8.75,-0.41,0.11,0.29,2.32,4.19,0,0,4.17,0,1,1,11,27.9333534,-80.709537,10,2025,4,12,19,30,38,0,0,0,0,1.5,0.8,1.2,0,0,0,0,39,0,0,0,0,0,35,38,0,31,0,0,32,0,28,37,0,33,0,37,32,0,0,0,0,0,0,0
6,11065,1,Zephyr2,0,3,   boost,122.58,101574,-20.71,-0.91,5.05,38.3,0,0,4.18,128.68,-2.47,-0.62,6.68,2.89,-8.75,-0.41,0.11,0.29,2.32,4.19,0,0,4.17,0,1,1,11,27.9333534,-80.709537,10,2025,4,12,19,30,38,0,0,0,0,1.5,0.8,1.2,0,0,0,0,39,0,0,0,0,0,35,38,0,31,0,0,32,0,28,37,0,33,0,37,32,0,0,0,0,0,0,0
6,11065,1,Zephyr2,0,3,   boost,122.58,101574,-20.71,-0.91,5.05,38.3,0,0,4.18,128.68,-2.47,-0.62,6.68,2.89,-8.75,-0.41,0.11,0.29,2.32,4.19,0,0,4.17,0,1,1,11,27.9333534,-80.709537,10,2025,4,12,19,30,38,0,0,0,0,1.5,0.8,1.2,0,0,0,0,39,0,0,0,0,0,35,38,0,31,0,0,32,0,28,37,0,33,0,37,32,0,0,0,0,0,0,0
6,11065,1,Zephyr2,0,3,   boost,122.58,101574,-20.71,-0.91,5.05,38.3,0,0,4.18,128.68,-2.47,-0.62,6.68,2.89,-8.75,-0.41,0.11,0.29,2.38,4.19,0,0,4.17,0,1,1,11,27.9333534,-80.709537,10,2025,4,12,19,30,38,0,0,0,0,1.5,0.8,1.2,0,0,0,0,39,0,0,0,0,0,35,38,0,31,0,0,32,0,28,37,0,33,0,37,32,0,0,0,0,0,0,0
6,11065,1,Zephyr2,0,3,   boost,122.58,101574,-20.71,-0.91,5.05,38.3,0,0,4.18,128.68,-2.47,-0.62,6.68,2.89,-8.75,-0.41,0.11,0.29,2.48,4.19,0,0,4.17,0,1,1,11,27.9333534,-80.709537,10,2025,4,12,19,30,38,0,0,0,0,1.5,0.8,1.2,0,0,0,0,39,0,0,0,0,0,35,38,0,31,0,0,32,0,28,37,0,33,0,37,32,0,0,0,0,0,0,0
6,11065,1,Zephyr2,0,3,   boost,122.58,101574,-20.71,-0.91,5.05,38.3,0,0,4.18,128.68,-2.47,-0.62,6.68,2.89,-8.75,-0.41,0.11,0.29,2.63,4.19,0,0,4.17,0,1,1,11,27.9333534,-80.709537,10,2025,4,12,19,30,38,0,0,0,0,1.5,0.8,1.2,0,0,0,0,39,0,0,0,0,0,35,38,0,31,0,0,32,0,28,37,0,33,0,37,32,0,0,0,0,0,0,0
6,11065,1,Zephyr2,0,3,   boost,122.58,101574,-20.71,-0.91,5.05,38.3,0,0,4.18,128.68,-2.47,-0.62,6.68,2.89,-8.75,-0.41,0.11,0.29,2.7,4.19,0,0,4.17,0,1,1,11,27.9333534,-80.709537,10,2025,4,12,19,30,38,0,0,0,0,1.5,0.8,1.2,0,0,0,0,39,0,0,0,0,0,35,38,0,31,0,0,32,0,28,37,0,33,0,37,32,0,0,0,0,0,0,0
6,11065,1,Zephyr2,0.01,3,   boost,128.96,101554,-19.05,0.75,6.29,38.3,0,0,4.18,136.88,-25.58,-12.18,4.42,2.1,-11.92,-0.41,0.11,0.29,2.81,4.19,0,0,4.17,0,1,1,11,27.9333534,-80.709537,10,2025,4,12,19,30,38,0,0,0,0,1.5,0.8,1.2,0,0,0,0,39,0,0,0,0,0,35,38,0,31,0,0,32,0,28,37,0,33,0,37,32,0,0,0,0,0,0,0
6,11065,1,Zephyr2,0.01,3,   boost,128.96,101554,-19.05,0.75,6.29,38.3,0,0,4.18,136.88,-25.58,-12.18,4.42,2.1,-11.92,-0.41,0.11,0.29,2.81,4.19,0,0,4.17,0,1,1,11,27.9333534,-80.709537,10,2025,4,12,19,30,38,0,0,0,0,1.5,0.8,1.2,0,0,0,0,39,0,0,0,0,0,35,38,0,31,0,0,32,0,28,37,0,33,0,37,32,0,0,0,0,0,0,0
6,11065,1,Zephyr2,0.02,3,   boost,132.88,101554,-19.05,0.75,7.59,38.3,0,0,4.18,140.93,-4.77,10.57,7.78,-0.9,-6.55,-0.41,0.11,0.29,2.87,4.19,0,0,4.18,0,1,1,11,27.9333534,-80.709537,10,2025,4,12,19,30,38,0,0,0,0,1.5,0.8,1.2,0,0,0,0,39,0,0,0,0,0,35,38,0,31,0,0,32,0,28,37,0,33,0,37,32,0,0,0,0,0,0,0
6,11065,1,Zephyr2,0.02,3,   boost,132.88,101554,-19.05,0.75,7.59,38.3,0,0,4.18,140.93,-4.77,10.57,7.78,-0.9,-6.55,-0.41,0.11,0.29,2.87,4.19,0,0,4.18,0,1,1,11,27.9333534,-80.709537,10,2025,4,12,19,30,38,0,0,0,0,1.5,0.8,1.2,0,0,0,0,39,0,0,0,0,0,35,38,0,31,0,0,32,0,28,37,0,33,0,37,32,0,0,0,0,0,0,0
6,11065,1,Zephyr2,0.03,3,   boost,141.71,101557,-19.29,0.5,8.94,38.3,0,0,4.18,148.94,-8.76,-1.8,26.21,10.15,-7.22,-0.41,0.11,0.29,2.92,4.19,0,0,4.18,0,1,1,11,27.9333534,-80.709537,10,2025,4,12,19,30,38,0,0,0,0,1.5,0.8,1.2,0,0,0,0,39,0,0,0,0,0,35,38,0,31,0,0,32,0,28,37,0,33,0,37,32,0,0,0,0,0,0,0
6,11065,1,Zephyr2,0.04,3,   boost,141.71,101557,-19.29,0.5,10.31,38.3,0,0,4.18,154.31,-9.66,-1.01,53.8,3.5,-5.88,-0.41,0.11,0.28,2.97,4.19,0,0,4.18,0,1,1,11,27.9333534,-80.709537,10,2025,4,12,19,30,38,0,0,0,0,1.5,0.8,1.2,0,0,0,0,39,0,0,0,0,0,35,38,0,31,0,0,32,0,28,37,0,33,0,37,32,0,0,0,0,0,0,0
6,11065,1,Zephyr2,0.05,3,   boost,144.65,101554,-19.05,0.75,11.7,38.3,0,0,4.18,156.71,11.55,20.08,61.13,3.07,-10.52,-0.41,0.11,0.28,3.06,4.19,0,0,4.18,0,1,1,11,27.9333534,-80.709537,10,2025,4,12,19,30,38,0,0,0,0,1.5,0.8,1.2,0,0,0,0,39,0,0,0,0,0,35,38,0,31,0,0,32,0,28,37,0,33,0,37,32,0,0,0,0,0,0,0
6,11065,1,Zephyr2,0.06,3,   boost,130.43,101554,-19.05,0.75,13.11,38.3,0,0,4.18,158.58,2.16,-14.12,32.07,0.08,-11.01,-0.41,0.11,0.28,3.17,4.19,0,0,4.18,0,1,1,11,27.9333534,-80.709537,10,2025,4,12,19,30,38,0,0,0,0,1.5,0.8,1.2,0,0,0,0,39,0,0,0,0,0,35,38,0,31,0,0,32,0,28,37,0,33,0,37,32,0,0,0,0,0,0,0
6,11065,1,Zephyr2,0.07,3,   boost,143.67,101549,-18.63,1.16,14.54,38.3,0,0,4.18,142.23,15.09,0.55,12.36,-0.71,-15.77,-0.41,0.12,0.28,3.33,4.19,0,0,4.18,0,1,1,11,27.9333534,-80.709537,10,2025,4,12,19,30,38,0,0,0,0,1.5,0.8,1.2,0,0,0,0,39,0,0,0,0,0,35,38,0,31,0,0,32,0,28,37,0,33,0,37,32,0,0,0,0,0,0,0
6,11065,1,Zephyr2,0.08,3,   boost,150.53,101549,-18.63,1.16,15.98,38.3,0,0,4.18,163.91,1.06,12.64,-27.01,-13.59,0.47,-0.41,0.12,0.28,3.35,4.19,0,0,4.18,0,1,1,11,27.9333534,-80.709537,10,2025,4,12,19,30,38,0,0,0,0,1.5,0.8,1.2,0,0,0,0,39,0,0,0,0,0,35,38,0,31,0,0,32,0,28,37,0,33,0,37,32,0,0,0,0,0,0,0
6,11065,1,Zephyr2,0.09,3,   boost,148.57,101557,-19.29,0.5,17.44,38.3,0,0,4.18,161.71,-7.4,-9.08,-45.81,-11.82,-3.93,-0.41,0.12,0.29,3.41,4.19,0,0,4.18,0,1,1,11,27.9333534,-80.709537,10,2025,4,12,19,30,38,0,0,0,0,1.5,0.8,1.2,0,0,0,0,39,0,0,0,0,0,35,38,0,31,0,0,32,0,28,37,0,33,0,37,32,0,0,0,0,0,0,0
6,11065,1,Zephyr2,0.1,3,   boost,144.65,101557,-19.29,0.5,18.92,38.3,0,0,4.18,163,8.38,9.09,-67.72,-9.38,1.63,-0.4,0.12,0.3,3.42,4.19,0,0,4.18,0,1,1,11,27.9333534,-80.709537,10,2025,4,12,19,30,38,0,0,0,0,1.5,0.8,1.2,0,0,0,0,39,0,0,0,0,0,35,38,0,31,0,0,32,0,28,37,0,33,0,37,32,0,0,0,0,0,0,0
6,11065,1,Zephyr2,0.11,3,   boost,153.47,101526,-16.72,3.07,20.43,38.3,0,0,4.18,164.27,-6.81,4.26,-45.26,-7.73,13.53,-0.43,0.17,0.25,3.32,4.19,0,0,4.18,0,1,1,11,27.9333534,-80.709537,10,2025,4,12,19,30,38,0,0,0,0,1.5,0.8,1.2,0,0,0,0,39,0,0,0,0,0,35,38,0,31,0,0,32,0,28,37,0,33,0,37,32,0,0,0,0,0,0,0
6,11065,1,Zephyr2,0.12,3,   boost,157.89,101526,-16.72,3.07,21.95,38.3,0,0,4.18,165.4,-3.48,1.68,-11.51,-12.37,0.89,-0.43,0.17,0.25,3.35,4.19,0,0,4.18,0,1,1,11,27.9333534,-80.709537,10,2025,4,12,19,30,38,0,0,0,0,1.5,0.8,1.2,0,0,0,0,39,0,0,0,0,0,35,38,0,31,0,0,32,0,28,37,0,33,0,37,32,0,0,0,0,0,0,0
6,11065,1,Zephyr2,0.13,3,   boost,151.51,101527,-16.8,2.99,23.49,38.3,0,0,4.18,170.08,4.44,-10.4,7.66,-8.16,0.95,-0.41,0.13,0.28,3.37,4.19,0,0,4.18,0,1,1,11,27.9333534,-80.709537,10,2025,4,12,19,30,38,0,0,0,0,1.5,0.8,1.2,0,0,0,0,39,0,0,0,0,0,35,38,0,31,0,0,32,0,28,37,0,33,0,37,32,0,0,0,0,0,0,0
6,11065,1,Zephyr2,0.14,3,   boost,156.91,101527,-16.8,2.99,25.04,38.3,0,0,4.18,172.8,-5.04,-7.98,32.5,-4.19,5.17,-0.41,0.13,0.28,3.34,4.19,0,0,4.18,0,1,1,11,27.9333534,-80.709537,10,2025,4,12,19,30,38,0,0,0,0,1.5,0.8,1.2,0,0,0,0,39,0,0,0,0,0,35,38,0,31,0,0,32,0,28,37,0,33,0,37,32,0,0,0,0,0,0,0
6,11065,1,Zephyr2,0.15,3,   boost,158.38,101536,-17.55,2.24,26.61,38.2,0,0,4.18,169.16,-12.4,0.73,28.72,-12.19,1.93,-0.41,0.12,0.28,3.37,4.19,0,0,4.18,0,1,1,11,27.9333534,-80.709537,10,2025,4,12,19,30,38,0,0,0,0,1.5,0.8,1.2,0,0,0,0,39,0,0,0,0,0,35,38,0,31,0,0,32,0,28,37,0,33,0,37,32,0,0,0,0,0,0,0
6,11065,1,Zephyr2,0.16,3,   boost,159.36,101536,-17.55,2.24,28.19,38.2,0,0,4.18,172.83,-7.94,-10.74,47.82,-15.36,1.26,-0.41,0.11,0.29,3.43,4.19,0,0,4.18,0,1,1,11,27.9333534,-80.709537,10,2025,4,12,19,30,38,0,0,0,0,1.5,0.8,1.2,0,0,0,0,39,0,0,0,0,0,35,38,0,31,0,0,32,0,28,37,0,33,0,37,32,0,0,0,0,0,0,0
6,11065,1,Zephyr2,0.17,3,   boost,160.83,101537,-17.63,2.16,29.79,38.3,0,0,4.18,173.47,-13.68,-13.18,63.32,-15.85,4.31,-0.41,0.11,0.29,3.47,4.19,0,0,4.18,0,1,1,11,27.9333534,-80.709537,10,2025,4,12,19,30,38,0,0,0,0,1.5,0.8,1.2,0,0,0,0,39,0,0,0,0,0,35,38,0,31,0,0,32,0,28,37,0,33,0,37,32,0,0,0,0,0,0,0
6,11065,1,Zephyr2,0.18,3,   boost,161.32,101537,-17.63,2.16,31.39,38.3,0,0,4.18,176.14,-6.54,10.82,87.74,-10.6,7,-0.41,0.1,0.29,3.46,4.19,0,0,4.18,0,1,1,11,27.9333534,-80.709537,10,2025,4,12,19,30,38,0,0,0,0,1.5,0.8,1.2,0,0,0,0,39,0,0,0,0,0,35,38,0,31,0,0,32,0,28,37,0,33,0,37,32,0,0,0,0,0,0,0
6,11065,1,Zephyr2,0.19,3,   boost,159.85,101527,-16.8,2.99,33.01,38.3,0,0,4.18,177.05,-10.86,-2.03,82.24,-18.47,2.66,-0.41,0.1,0.28,3.54,4.19,0,0,4.18,0,1,1,11,27.9333534,-80.709537,10,2025,4,12,19,30,38,0,0,0,0,1.5,0.8,1.2,0,0,0,0,39,0,0,0,0,0,35,38,0,31,0,0,32,0,28,37,0,33,0,37,32,0,0,0,0,0,0,0
6,11065,1,Zephyr2,0.2,3,   boost,167.69,101527,-16.8,2.99,34.64,38.3,0,0,4.18,176.88,7.13,7.87,89.57,-15.97,4.19,-0.41,0.1,0.28,3.59,4.19,0,0,4.18,0,1,1,11,27.9333534,-80.709537,10,2025,4,12,19,30,38,0,0,0,0,1.5,0.8,1.2,0,0,0,0,39,0,0,0,0,0,35,38,0,31,0,0,32,0,28,37,0,33,0,37,32,0,0,0,0,0,0,0
6,11065,1,Zephyr2,0.21,3,   boost,166.71,101549,-18.63,1.16,36.26,38.2,0,0,4.18,181.18,-5.19,1.37,76.02,-12.49,1.99,-0.41,0.1,0.28,3.64,4.19,0,0,4.18,0,1,1,11,27.9333534,-80.709537,10,2025,4,12,19,30,38,0,0,0,0,1.5,0.8,1.2,0,0,0,0,39,0,0,0,0,0,35,38,0,31,0,0,32,0,28,37,0,33,0,37,32,0,0,0,0,0,0,0
6,11065,1,Zephyr2,0.22,3,   boost,166.71,101549,-18.63,1.16,37.88,38.2,0,0,4.18,182.77,-4.68,0.3,72.9,-9.38,-7.1,-0.41,0.1,0.28,3.75,4.19,0,0,4.18,0,1,1,11,27.9333534,-80.709537,10,2025,4,12,19,30,38,0,0,0,0,1.5,0.8,1.2,0,0,0,0,39,0,0,0,0,0,35,38,0,31,0,0,32,0,28,37,0,33,0,37,32,0,0,0,0,0,0,0
6,11065,1,Zephyr2,0.23,3,   boost,142.69,101501,-14.64,5.15,39.5,38.3,0,0,4.18,184.03,0.27,0.92,70.95,-9.14,-6.43,-0.41,0.1,0.28,3.86,4.19,0,0,4.18,0,1,1,11,27.9333534,-80.709537,10,2025,4,12,19,30,38,0,0,0,0,1.5,0.8,1.2,0,0,0,0,39,0,0,0,0,0,35,38,0,31,0,0,32,0,28,37,0,33,0,37,32,0,0,0,0,0,0,0
6,11065,1,Zephyr2,0.24,3,   boost,170.15,101501,-14.64,5.15,41.12,38.3,0,0,4.18,178.95,-13.49,-11.43,41.11,-14.26,-4.6,-0.41,0.1,0.27,3.98,4.19,0,0,4.18,0,1,1,11,27.9333534,-80.709537,10,2025,4,12,19,30,38,0,0,0,0,1.5,0.8,1.2,0,0,0,0,39,0,0,0,0,0,35,38,0,31,0,0,32,0,28,37,0,33,0,37,32,0,0,0,0,0,0,0
6,11065,1,Zephyr2,0.25,3,   boost,163.77,101498,-14.39,5.4,42.76,38.3,0,0,4.18,183.29,-11.19,-5.18,81.82,-11.15,-2.89,-0.41,0.1,0.27,4.07,4.19,0,0,4.18,0,1,1,11,27.9333534,-80.709537,10,2025,4,12,19,30,38,0,0,0,0,1.5,0.8,1.2,0,0,0,0,39,0,0,0,0,0,35,38,0,31,0,0,32,0,28,37,0,33,0,37,32,0,0,0,0,0,0,0
6,11065,1,Zephyr2,0.26,3,   boost,171.13,101498,-14.39,5.4,44.42,38.3,0,0,4.18,184.55,-2.71,-4.23,115.51,-20.43,-2.83,-0.41,0.09,0.27,4.21,4.19,0,0,4.18,0,1,1,11,27.9333534,-80.709537,10,2025,4,12,19,30,38,0,0,0,0,1.5,0.8,1.2,0,0,0,0,39,0,0,0,0,0,35,38,0,31,0,0,32,0,28,37,0,33,0,37,32,0,0,0,0,0,0,0
6,11065,1,Zephyr2,0.26,3,   boost,171.13,101498,-14.39,5.4,44.42,38.3,0,0,4.18,184.55,-2.71,-4.23,115.51,-20.43,-2.83,-0.41,0.09,0.27,4.21,4.19,0,0,4.18,0,1,1,11,27.9333534,-80.709537,10,2025,4,12,19,30,38,0,0,0,0,1.5,0.8,1.2,0,0,0,0,39,0,0,0,0,0,35,38,0,31,0,0,32,0,28,37,0,33,0,37,32,0,0,0,0,0,0,0
6,11065,1,Zephyr2,0.26,3,   boost,171.13,101498,-14.39,5.4,44.42,38.3,0,0,4.18,184.55,-2.71,-4.23,115.51,-20.43,-2.83,-0.41,0.09,0.27,4.21,4.19,0,0,4.18,0,1,1,11,27.9333534,-80.709537,10,2025,4,12,19,30,38,0,0,0,0,1.5,0.8,1.2,0,0,0,0,39,0,0,0,0,0,35,38,0,31,0,0,32,0,28,37,0,33,0,37,32,0,0,0,0,0,0,0
6,11065,1,Zephyr2,0.27,3,   boost,170.15,101503,-14.81,4.99,46.09,38.3,0,0,4.18,186.94,-8.22,3.43,132.66,-18.41,-6.55,-0.41,0.09,0.26,4.38,4.19,0,0,4.18,0,1,1,11,27.9333411,-80.7095302,15,2025,4,12,19,30,39,2,5,154,73,1.5,0.8,1.2,0,0,0,0,39,0,0,0,0,0,25,26,0,30,0,0,31,0,19,26,0,38,0,38,29,0,0,0,0,0,0,0
6,11065,1,Zephyr2,0.28,3,   boost,170.15,101503,-14.81,4.99,47.77,38.3,0,0,4.18,188.76,-2.24,3.13,119.84,-13.22,-8.26,-0.41,0.09,0.26,4.52,4.19,0,0,4.18,0,1,1,11,27.9333411,-80.7095302,15,2025,4,12,19,30,39,2,5,154,73,1.5,0.8,1.2,0,0,0,0,39,0,0,0,0,0,25,26,0,30,0,0,31,0,19,26,0,38,0,38,29,0,0,0,0,0,0,0
6,11065,1,Zephyr2,0.29,3,   boost,158.38,101478,-12.73,7.06,49.46,38.3,0,0,4.18,188.79,-1.34,1.43,100.37,-9.99,-8.02,-0.41,0.09,0.26,4.65,4.19,0,0,4.18,0,1,1,11,27.9333411,-80.7095302,15,2025,4,12,19,30,39,2,5,154,73,1.5,0.8,1.2,0,0,0,0,39,0,0,0,0,0,25,26,0,30,0,0,31,0,19,26,0,38,0,38,29,0,0,0,0,0,0,0
6,11065,1,Zephyr2,0.3,3,   boost,178.48,101478,-12.73,7.06,51.17,38.3,0,0,4.18,191.43,-8.56,-5.3,57.59,-5.53,-12.72,-0.41,0.09,0.25,4.78,4.19,0,0,4.18,0,1,1,11,27.9333411,-80.7095302,15,2025,4,12,19,30,39,2,5,154,73,1.5,0.8,1.2,0,0,0,0,39,0,0,0,0,0,25,26,0,30,0,0,31,0,19,26,0,38,0,38,29,0,0,0,0,0,0,0
6,11065,1,Zephyr2,0.31,3,   boost,178.97,101493,-13.98,5.82,52.9,38.2,0,0,4.18,189.74,-2.04,-3.53,52.7,-5.47,-13.88,-0.41,0.09,0.25,4.93,4.19,0,0,4.18,0,1,1,11,27.9333411,-80.7095302,15,2025,4,12,19,30,39,2,5,154,73,1.5,0.8,1.2,0,0,0,0,39,0,0,0,0,0,25,26,0,30,0,0,31,0,19,26,0,38,0,38,29,0,0,0,0,0,0,0
6,11065,1,Zephyr2,0.32,3,   boost,175.05,101493,-13.98,5.82,54.65,38.2,0,0,4.18,193.32,-7.22,-11.11,26.09,-10.23,-12.05,-0.41,0.09,0.25,5.08,4.19,0,0,4.18,0,1,1,11,27.9333411,-80.7095302,15,2025,4,12,19,30,39,2,5,154,73,1.5,0.8,1.2,0,0,0,0,39,0,0,0,0,0,25,26,0,30,0,0,31,0,19,26,0,38,0,38,29,0,0,0,0,0,0,0
6,11065,1,Zephyr2,0.33,3,   boost,178.48,101472,-12.23,7.56,56.4,38.3,0,0,4.18,194.21,-7.07,-2.83,22.31,-11.52,-13.08,-0.41,0.09,0.25,5.26,4.19,0,0,4.18,0,1,1,11,27.9333411,-80.7095302,15,2025,4,12,19,30,39,2,5,154,73,1.5,0.8,1.2,0,0,0,0,39,0,0,0,0,0,25,26,0,30,0,0,31,0,19,26,0,38,0,38,29,0,0,0,0,0,0,0
6,11065,1,Zephyr2,0.34,3,   boost,175.54,101472,-12.23,7.56,58.17,38.3,0,0,4.18,194.76,-3.37,-3.14,21.21,-13.59,-13.76,-0.41,0.09,0.25,5.45,4.19,0,0,4.18,0,1,1,11,27.9333411,-80.7095302,15,2025,4,12,19,30,39,2,5,154,73,1.5,0.8,1.2,0,0,0,0,39,0,0,0,0,0,25,26,0,30,0,0,31,0,19,26,0,38,0,38,29,0,0,0,0,0,0,0
6,11065,1,Zephyr2,0.34,3,   boost,175.54,101472,-12.23,7.56,58.17,38.3,0,0,4.18,194.76,-3.37,-3.14,21.21,-13.59,-13.76,-0.41,0.09,0.25,5.45,4.19,0,0,4.18,0,1,1,11,27.9333411,-80.7095302,15,2025,4,12,19,30,39,2,5,154,73,1.5,0.8,1.2,0,0,0,0,39,0,0,0,0,0,25,26,0,30,0,0,31,0,19,26,0,38,0,38,29,0,0,0,0,0,0,0
6,11065,1,Zephyr2,0.35,3,   boost,177.01,101448,-10.23,9.56,59.93,38.3,0,0,4.18,195.89,-2.62,0.42,21.7,-11.52,-13.21,-0.41,0.09,0.25,5.62,4.19,0,0,4.18,0,1,1,11,27.9333411,-80.7095302,15,2025,4,12,19,30,39,2,5,154,73,1.5,0.8,1.2,0,0,0,0,39,0,0,0,0,0,25,26,0,30,0,0,31,0,19,26,0,38,0,38,29,0,0,0,0,0,0,0
6,11065,1,Zephyr2,0.36,3,   boost,178.97,101448,-10.23,9.56,61.7,38.3,0,0,4.18,196.07,-5.73,5.45,22.06,-8.65,-16.87,-0.41,0.09,0.25,5.81,4.19,0,0,4.18,0,1,1,11,27.9333411,-80.7095302,15,2025,4,12,19,30,39,2,5,154,73,1.5,0.8,1.2,0,0,0,0,39,0,0,0,0,0,25,26,0,30,0,0,31,0,19,26,0,38,0,38,29,0,0,0,0,0,0,0
6,11065,1,Zephyr2,0.37,3,   boost,178.48,101446,-10.07,9.73,63.47,38.3,0,0,4.18,196.89,-3.02,0.89,19.56,-5.29,-19.31,-0.41,0.09,0.25,6,4.19,0,0,4.18,0,1,1,11,27.9333411,-80.7095302,15,2025,4,12,19,30,39,2,5,154,73,1.5,0.8,1.2,0,0,0,0,39,0,0,0,0,0,25,26,0,30,0,0,31,0,19,26,0,38,0,38,29,0,0,0,0,0,0,0
6,11065,1,Zephyr2,0.38,3,   boost,176.52,101446,-10.07,9.73,65.24,38.3,0,0,4.18,197.38,-4.91,-0.19,15.9,-3.21,-18.58,-0.41,0.09,0.25,6.17,4.19,0,0,4.18,0,1,1,11,27.9333411,-80.7095302,15,2025,4,12,19,30,39,2,5,154,73,1.5,0.8,1.2,0,0,0,0,39,0,0,0,0,0,25,26,0,30,0,0,31,0,19,26,0,38,0,38,29,0,0,0,0,0,0,0
6,11065,1,Zephyr2,0.39,3,   boost,178.97,101443,-9.82,9.97,67.02,38.3,0,0,4.18,198.1,-7.18,-1.37,12.97,-6.39,-19.68,-0.41,0.09,0.25,6.38,4.19,0,0,4.18,0,1,1,11,27.9333411,-80.7095302,15,2025,4,12,19,30,39,2,5,154,73,1.5,0.8,1.2,0,0,0,0,39,0,0,0,0,0,25,26,0,30,0,0,31,0,19,26,0,38,0,38,29,0,0,0,0,0,0,0
6,11065,1,Zephyr2,0.4,3,   boost,182.4,101443,-9.82,9.97,68.81,38.3,0,0,4.18,198.72,-5.21,-5.38,7.84,-8.71,-19.92,-0.41,0.09,0.25,6.59,4.19,0,0,4.18,0,1,1,11,27.9333411,-80.7095302,15,2025,4,12,19,30,39,2,5,154,73,1.5,0.8,1.2,0,0,0,0,39,0,0,0,0,0,25,26,0,30,0,0,31,0,19,26,0,38,0,38,29,0,0,0,0,0,0,0
6,11065,1,Zephyr2,0.41,3,   boost,180.44,101434,-9.07,10.72,70.6,38.3,0,0,4.18,199.48,-3.91,-4.43,0.76,-8.59,-18.64,-0.41,0.09,0.25,6.79,4.19,0,0,4.18,0,1,1,11,27.9333411,-80.7095302,15,2025,4,12,19,30,39,2,5,154,73,1.5,0.8,1.2,0,0,0,0,39,0,0,0,0,0,25,26,0,30,0,0,31,0,19,26,0,38,0,38,29,0,0,0,0,0,0,0
6,11065,1,Zephyr2,0.42,3,   boost,180.93,101434,-9.07,10.72,72.39,38.3,0,0,4.18,199.71,-3.06,0.85,0.21,-10.97,-19,-0.41,0.09,0.25,7.01,4.19,0,0,4.18,0,1,1,11,27.9333411,-80.7095302,15,2025,4,12,19,30,39,2,5,154,73,1.5,0.8,1.2,0,0,0,0,39,0,0,0,0,0,25,26,0,30,0,0,31,0,19,26,0,38,0,38,29,0,0,0,0,0,0,0
6,11065,1,Zephyr2,0.43,3,   boost,183.38,101408,-6.91,12.89,74.19,38.3,0,0,4.18,199.75,-2.44,0.02,0.15,-10.05,-21.69,-0.41,0.1,0.25,7.25,4.19,0,0,4.18,0,1,1,11,27.9333411,-80.7095302,15,2025,4,12,19,30,39,2,5,154,73,1.5,0.8,1.2,0,0,0,0,39,0,0,0,0,0,25,26,0,30,0,0,31,0,19,26,0,38,0,38,29,0,0,0,0,0,0,0
6,11065,1,Zephyr2,0.44,3,   boost,177.5,101408,-6.91,12.89,75.99,38.3,0,0,4.18,200.31,-3.17,0.38,0.52,-7.85,-23.83,-0.41,0.1,0.26,7.5,4.19,0,0,4.18,0,1,1,11,27.9333411,-80.7095302,15,2025,4,12,19,30,39,2,5,154,73,1.5,0.8,1.2,0,0,0,0,39,0,0,0,0,0,25,26,0,30,0,0,31,0,19,26,0,38,0,38,29,0,0,0,0,0,0,0
6,11065,1,Zephyr2,0.45,3,   boost,183.38,101402,-6.41,13.39,77.79,38.3,0,0,4.18,200.75,-4.9,2.31,-0.09,-6.45,-25.05,-0.41,0.1,0.26,7.75,4.19,0,0,4.18,0,1,1,11,27.9333411,-80.7095302,15,2025,4,12,19,30,39,2,5,154,73,1.5,0.8,1.2,0,0,0,0,39,0,0,0,0,0,25,26,0,30,0,0,31,0,19,26,0,38,0,38,29,0,0,0,0,0,0,0
6,11065,1,Zephyr2,0.46,3,   boost,182.89,101402,-6.41,13.39,79.59,38.3,0,0,4.18,200.95,-5.27,-2.74,-2.9,-6.02,-24.99,-0.41,0.1,0.25,7.99,4.19,0,0,4.18,0,1,1,11,27.9333411,-80.7095302,15,2025,4,12,19,30,39,2,5,154,73,1.5,0.8,1.2,0,0,0,0,39,0,0,0,0,0,25,26,0,30,0,0,31,0,19,26,0,38,0,38,29,0,0,0,0,0,0,0
6,11065,1,Zephyr2,0.47,3,   boost,182.89,101373,-3.99,15.8,81.39,38.3,0,0,4.18,201.34,-5.53,-1.5,-4.85,-7.06,-23.83,-0.42,0.1,0.26,8.24,4.19,0,0,4.18,0,1,1,11,27.9333411,-80.7095302,15,2025,4,12,19,30,39,2,5,154,73,1.5,0.8,1.2,0,0,0,0,39,0,0,0,0,0,25,26,0,30,0,0,31,0,19,26,0,38,0,38,29,0,0,0,0,0,0,0
6,11065,1,Zephyr2,0.48,3,   boost,182.4,101373,-3.99,15.8,83.2,38.3,0,0,4.18,201.88,-4.94,-2.54,-6.5,-9.38,-24.13,-0.42,0.1,0.26,8.49,4.19,0,0,4.18,0,1,1,11,27.9333411,-80.7095302,15,2025,4,12,19,30,39,2,5,154,73,1.5,0.8,1.2,0,0,0,0,39,0,0,0,0,0,25,26,0,30,0,0,31,0,19,26,0,38,0,38,29,0,0,0,0,0,0,0
6,11065,1,Zephyr2,0.49,3,   boost,182.4,101378,-4.41,15.38,85,38.3,0,0,4.18,202.36,-1.98,-3.23,-6.62,-10.66,-24.31,-0.42,0.1,0.26,8.76,4.19,0,0,4.18,0,1,1,11,27.9333411,-80.7095302,15,2025,4,12,19,30,39,2,5,154,73,1.5,0.8,1.2,0,0,0,0,39,0,0,0,0,0,25,26,0,30,0,0,31,0,19,26,0,38,0,38,29,0,0,0,0,0,0,0
6,11065,1,Zephyr2,0.5,3,   boost,183.38,101378,-4.41,15.38,86.82,38.3,0,0,4.18,202.75,-0.64,-0.7,-4.91,-9.5,-25.11,-0.42,0.11,0.26,9.02,4.19,0,0,4.18,0,1,1,11,27.9333411,-80.7095302,15,2025,4,12,19,30,39,2,5,154,73,1.5,0.8,1.2,0,0,0,0,39,0,0,0,0,0,25,26,0,30,0,0,31,0,19,26,0,38,0,38,29,0,0,0,0,0,0,0
6,11065,1,Zephyr2,0.51,3,   boost,183.38,101348,-1.91,17.88,88.63,38.3,0,0,4.18,203.02,-2.49,-0.69,-2.6,-8.65,-27.43,-0.42,0.11,0.26,9.31,4.19,0,0,4.18,0,1,1,11,27.9333411,-80.7095302,15,2025,4,12,19,30,39,2,5,154,73,1.5,0.8,1.2,0,0,0,0,39,0,0,0,0,0,25,26,0,30,0,0,31,0,19,26,0,38,0,38,29,0,0,0,0,0,0,0
6,11065,1,Zephyr2,0.52,3,   boost,185.35,101348,-1.91,17.88,90.45,38.3,0,0,4.18,203.79,-1.2,-0.81,-0.7,-7.91,-28.95,-0.42,0.11,0.26,9.6,4.19,0,0,4.18,0,1,1,11,27.9333411,-80.7095302,15,2025,4,12,19,30,39,2,5,154,73,1.5,0.8,1.2,0,0,0,0,39,0,0,0,0,0,25,26,0,30,0,0,31,0,19,26,0,38,0,38,29,0,0,0,0,0,0,0
6,11065,1,Zephyr2,0.53,3,   boost,188.29,101338,-1.08,18.71,92.28,38.3,0,0,4.18,203.77,-3.71,-1.31,-0.76,-7.79,-28.4,-0.42,0.11,0.26,9.89,4.19,0,0,4.18,0,1,1,11,27.9333411,-80.7095302,15,2025,4,12,19,30,39,2,5,154,73,1.5,0.8,1.2,0,0,0,0,39,0,0,0,0,0,25,26,0,30,0,0,31,0,19,26,0,38,0,38,29,0,0,0,0,0,0,0
6,11065,1,Zephyr2,0.54,3,   boost,184.86,101338,-1.08,18.71,94.11,38.3,0,0,4.18,204.08,-4.47,-1.91,-1.8,-8.52,-27.98,-0.42,0.11,0.26,10.18,4.19,0,0,4.18,0,1,1,11,27.9333411,-80.7095302,15,2025,4,12,19,30,39,2,5,154,73,1.5,0.8,1.2,0,0,0,0,39,0,0,0,0,0,25,26,0,30,0,0,31,0,19,26,0,38,0,38,29,0,0,0,0,0,0,0
6,11065,1,Zephyr2,0.55,3,   boost,186.82,101310,1.25,21.04,95.94,38.3,0,0,4.18,204.78,-2.12,-2.06,-3.63,-9.5,-27.06,-0.42,0.11,0.26,10.46,4.19,0,0,4.18,0,1,1,11,27.9333411,-80.7095302,15,2025,4,12,19,30,39,2,5,154,73,1.5,0.8,1.2,0,0,0,0,39,0,0,0,0,0,25,26,0,30,0,0,31,0,19,26,0,38,0,38,29,0,0,0,0,0,0,0
6,11065,1,Zephyr2,0.56,3,   boost,187.31,101310,1.25,21.04,97.77,38.3,0,0,4.18,204.83,-2.14,-1.85,-3.57,-10.11,-26.63,-0.42,0.11,0.26,10.74,4.19,0,0,4.18,0,1,1,11,27.9333411,-80.7095302,15,2025,4,12,19,30,39,2,5,154,73,1.5,0.8,1.2,0,0,0,0,39,0,0,0,0,0,25,26,0,30,0,0,31,0,19,26,0,38,0,38,29,0,0,0,0,0,0,0
6,11065,1,Zephyr2,0.57,3,   boost,185.84,101296,2.41,22.21,99.6,38.3,0,0,4.18,205.54,-0.11,-0.95,-2.53,-9.81,-28.46,-0.42,0.12,0.26,11.04,4.19,0,0,4.18,0,1,1,11,27.9333411,-80.7095302,15,2025,4,12,19,30,39,2,5,154,73,1.5,0.8,1.2,0,0,0,0,39,0,0,0,0,0,25,26,0,30,0,0,31,0,19,26,0,38,0,38,29,0,0,0,0,0,0,0
6,11065,1,Zephyr2,0.58,3,   boost,187.31,101296,2.41,22.21,101.43,38.3,0,0,4.18,205.58,1.31,-2.21,0.64,-8.83,-28.65,-0.43,0.12,0.26,11.34,4.19,0,0,4.18,0,1,1,11,27.9333411,-80.7095302,15,2025,4,12,19,30,39,2,5,154,73,1.5,0.8,1.2,0,0,0,0,39,0,0,0,0,0,25,26,0,30,0,0,31,0,19,26,0,38,0,38,29,0,0,0,0,0,0,0
6,11065,1,Zephyr2,0.59,3,   boost,187.8,101281,3.66,23.46,103.27,38.3,0,0,4.18,206.41,-0.07,-1.97,3.02,-8.1,-29.99,-0.43,0.12,0.26,11.64,4.19,0,0,4.18,0,1,1,11,27.9333411,-80.7095302,15,2025,4,12,19,30,39,2,5,154,73,1.5,0.8,1.2,0,0,0,0,39,0,0,0,0,0,25,26,0,30,0,0,31,0,19,26,0,38,0,38,29,0,0,0,0,0,0,0
6,11065,1,Zephyr2,0.6,3,   boost,186.82,101281,3.66,23.46,105.1,38.3,0,0,4.18,207.03,0.74,-2.52,4.97,-8.71,-30.54,-0.43,0.12,0.26,11.96,4.19,0,0,4.18,0,1,1,11,27.9333411,-80.7095302,15,2025,4,12,19,30,39,2,5,154,73,1.5,0.8,1.2,0,0,0,0,39,0,0,0,0,0,25,26,0,30,0,0,31,0,19,26,0,38,0,38,29,0,0,0,0,0,0,0
6,11065,1,Zephyr2,0.61,3,   boost,188.78,101258,5.58,25.37,106.94,38.3,0,0,4.18,207.33,0.2,-3.98,4.06,-9.2,-28.46,-0.43,0.12,0.26,12.25,4.19,0,0,4.18,0,1,1,11,27.9333411,-80.7095302,15,2025,4,12,19,30,39,2,5,154,73,1.5,0.8,1.2,0,0,0,0,39,0,0,0,0,0,25,26,0,30,0,0,31,0,19,26,0,38,0,38,29,0,0,0,0,0,0,0
6,11065,1,Zephyr2,0.62,3,   boost,188.29,101258,5.58,25.37,108.78,38.3,0,0,4.18,207.59,0.61,-2.37,1.37,-9.93,-27.24,-0.43,0.12,0.26,12.54,4.19,0,0,4.18,0,1,1,11,27.9333411,-80.7095302,15,2025,4,12,19,30,39,2,5,154,73,1.5,0.8,1.2,0,0,0,0,39,0,0,0,0,0,25,26,0,30,0,0,31,0,19,26,0,38,0,38,29,0,0,0,0,0,0,0
6,11065,1,Zephyr2,0.63,3,   boost,191.72,101238,7.24,27.04,110.61,38.2,0,0,4.18,207.53,2.95,-3.43,0.21,-10.48,-26.45,-0.43,0.13,0.26,12.82,4.19,0,0,4.18,0,1,1,11,27.9333411,-80.7095302,15,2025,4,12,19,30,39,2,5,154,73,1.5,0.8,1.2,0,0,0,0,39,0,0,0,0,0,25,26,0,30,0,0,31,0,19,26,0,38,0,38,29,0,0,0,0,0,0,0
6,11065,1,Zephyr2,0.64,3,   boost,186.82,101238,7.24,27.04,112.45,38.2,0,0,4.18,208.26,4.12,-3.27,-3.08,-9.38,-25.6,-0.43,0.13,0.27,13.1,4.19,0,0,4.18,0,1,1,11,27.9333411,-80.7095302,15,2025,4,12,19,30,39,2,5,154,73,1.5,0.8,1.2,0,0,0,0,39,0,0,0,0,0,25,26,0,30,0,0,31,0,19,26,0,38,0,38,29,0,0,0,0,0,0,0
6,11065,1,Zephyr2,0.65,3,   boost,187.31,101224,8.41,28.2,114.28,38.3,0,0,4.18,207.9,4.38,-3.05,-6.07,-7.79,-26.45,-0.43,0.13,0.27,13.37,4.19,0,0,4.18,0,1,1,11,27.9333411,-80.7095302,15,2025,4,12,19,30,39,2,5,154,73,1.5,0.8,1.2,0,0,0,0,39,0,0,0,0,0,25,26,0,30,0,0,31,0,19,26,0,38,0,38,29,0,0,0,0,0,0,0
6,11065,1,Zephyr2,0.66,3,   boost,188.78,101224,8.41,28.2,116.12,38.3,0,0,4.18,208.48,5.04,-4.35,-10.04,-7.12,-26.45,-0.43,0.13,0.27,13.64,4.2,0,0,4.19,0,1,1,11,27.9333411,-80.7095302,15,2025,4,12,19,30,39,2,5,154,73,1.5,0.8,1.2,0,0,0,0,39,0,0,0,0,0,25,26,0,30,0,0,31,0,19,26,0,38,0,38,29,0,0,0,0,0,0,0
6,11065,1,Zephyr2,0.66,3,   boost,188.78,101224,8.41,28.2,116.12,38.3,0,0,4.18,208.48,5.04,-4.35,-10.04,-7.12,-26.45,-0.43,0.13,0.27,13.64,4.2,0,0,4.19,0,1,1,11,27.9333411,-80.7095302,15,2025,4,12,19,30,39,2,5,154,73,1.5,0.8,1.2,0,0,0,0,39,0,0,0,0,0,25,26,0,30,0,0,31,0,19,26,0,38,0,38,29,0,0,0,0,0,0,0
6,11065,1,Zephyr2,0.67,3,   boost,189.27,101213,9.33,29.12,117.95,38.3,0,0,4.18,209.06,3.76,-5.59,-13.77,-7.24,-25.35,-0.43,0.13,0.27,13.9,4.2,0,0,4.19,0,1,1,11,27.9333411,-80.7095302,15,2025,4,12,19,30,39,2,5,154,73,1.5,0.8,1.2,0,0,0,0,39,0,0,0,0,0,25,26,0,30,0,0,31,0,19,26,0,38,0,38,29,0,0,0,0,0,0,0
6,11065,1,Zephyr2,0.68,3,   boost,190.25,101213,9.33,29.12,119.78,38.3,0,0,4.18,208.78,3.85,-4.86,-20.78,-7.3,-23.22,-0.43,0.13,0.27,14.14,4.2,0,0,4.19,0,1,1,11,27.9333411,-80.7095302,15,2025,4,12,19,30,39,2,5,154,73,1.5,0.8,1.2,0,0,0,0,39,0,0,0,0,0,25,26,0,30,0,0,31,0,19,26,0,38,0,38,29,0,0,0,0,0,0,0
6,11065,1,Zephyr2,0.69,3,   boost,189.76,101175,12.49,32.29,121.61,38.3,0,0,4.18,209.49,4.4,-4.91,-26.28,-7.67,-21.2,-0.43,0.14,0.27,14.36,4.2,0,0,4.19,0,1,1,11,27.9333411,-80.7095302,15,2025,4,12,19,30,39,2,5,154,73,1.5,0.8,1.2,0,0,0,0,39,0,0,0,0,0,25,26,0,30,0,0,31,0,19,26,0,38,0,38,29,0,0,0,0,0,0,0
6,11065,1,Zephyr2,0.7,3,   boost,186.82,101175,12.49,32.29,123.43,38.3,0,0,4.18,210.39,5.49,-4.62,-31.22,-7.18,-20.04,-0.44,0.14,0.27,14.58,4.2,0,0,4.19,0,1,1,11,27.9333411,-80.7095302,15,2025,4,12,19,30,39,2,5,154,73,1.5,0.8,1.2,0,0,0,0,39,0,0,0,0,0,25,26,0,30,0,0,31,0,19,26,0,38,0,38,29,0,0,0,0,0,0,0
6,11065,1,Zephyr2,0.71,3,   boost,188.78,101166,13.24,33.04,125.25,38.3,0,0,4.18,209.87,7.27,-4.22,-35.31,-5.84,-19.31,-0.44,0.14,0.28,14.78,4.2,0,0,4.19,0,1,1,11,27.9333411,-80.7095302,15,2025,4,12,19,30,39,2,5,154,73,1.5,0.8,1.2,0,0,0,0,39,0,0,0,0,0,25,26,0,30,0,0,31,0,19,26,0,38,0,38,29,0,0,0,0,0,0,0
6,11065,1,Zephyr2,0.72,3,   boost,187.8,101166,13.24,33.04,127.08,38.3,0,0,4.18,210.24,7.16,-4.66,-38.42,-5.17,-18.94,-0.44,0.14,0.28,14.97,4.2,0,0,4.19,0,1,1,11,27.9333411,-80.7095302,15,2025,4,12,19,30,39,2,5,154,73,1.5,0.8,1.2,0,0,0,0,39,0,0,0,0,0,25,26,0,30,0,0,31,0,19,26,0,38,0,38,29,0,0,0,0,0,0,0
6,11065,1,Zephyr2,0.73,3,   boost,190.74,101137,15.66,35.45,128.91,38.3,0,0,4.18,210.21,7.87,-4.7,-42.09,-4.98,-17.91,-0.44,0.14,0.28,15.15,4.2,0,0,4.19,0,1,1,11,27.9333411,-80.7095302,15,2025,4,12,19,30,39,2,5,154,73,1.5,0.8,1.2,0,0,0,0,39,0,0,0,0,0,25,26,0,30,0,0,31,0,19,26,0,38,0,38,29,0,0,0,0,0,0,0
6,11065,1,Zephyr2,0.74,3,   boost,190.25,101137,15.66,35.45,130.74,38.3,0,0,4.18,210.26,7.06,-5.8,-46.36,-4.68,-16.32,-0.44,0.14,0.28,15.32,4.2,0,0,4.19,0,1,1,11,27.9333411,-80.7095302,15,2025,4,12,19,30,39,2,5,154,73,1.5,0.8,1.2,0,0,0,0,39,0,0,0,0,0,25,26,0,30,0,0,31,0,19,26,0,38,0,38,29,0,0,0,0,0,0,0
6,11065,1,Zephyr2,0.75,3,   boost,193.19,101129,16.33,36.12,132.58,38.3,0,0,4.18,210.78,7.43,-5.36,-52.28,-4.37,-13.57,-0.44,0.15,0.29,15.46,4.2,0,0,4.19,0,1,1,11,27.9333411,-80.7095302,15,2025,4,12,19,30,39,2,5,154,73,1.5,0.8,1.2,0,0,0,0,39,0,0,0,0,0,25,26,0,30,0,0,31,0,19,26,0,38,0,38,29,0,0,0,0,0,0,0
6,11065,1,Zephyr2,0.76,3,   boost,190.74,101129,16.33,36.12,134.42,38.3,0,0,4.18,211.41,8.54,-5.68,-56.06,-3.64,-11.13,-0.44,0.15,0.29,15.58,4.2,0,0,4.19,0,1,1,11,27.9333411,-80.7095302,15,2025,4,12,19,30,39,2,5,154,73,1.5,0.8,1.2,0,0,0,0,39,0,0,0,0,0,25,26,0,30,0,0,31,0,19,26,0,38,0,38,29,0,0,0,0,0,0,0
6,11065,1,Zephyr2,0.77,3,   boost,192.7,101127,16.5,36.29,136.26,38.3,0,0,4.18,211.02,9.58,-5.27,-61.74,-3.7,-9.85,-0.44,0.15,0.29,15.68,4.2,0,0,4.19,0,1,1,11,27.9333411,-80.7095302,15,2025,4,12,19,30,39,2,5,154,73,1.5,0.8,1.2,0,0,0,0,39,0,0,0,0,0,25,26,0,30,0,0,31,0,19,26,0,38,0,38,29,0,0,0,0,0,0,0
6,11065,1,Zephyr2,0.78,3,   boost,190.25,101127,16.5,36.29,138.1,38.3,0,0,4.18,211.86,10.54,-4.24,-65.83,-2.79,-8.38,-0.44,0.15,0.29,15.77,4.2,0,0,4.19,0,1,1,11,27.9333411,-80.7095302,15,2025,4,12,19,30,39,2,5,154,73,1.5,0.8,1.2,0,0,0,0,39,0,0,0,0,0,25,26,0,30,0,0,31,0,19,26,0,38,0,38,29,0,0,0,0,0,0,0
6,11065,1,Zephyr2,0.79,3,   boost,191.23,101109,18,37.79,139.93,38.3,0,0,4.18,211.78,9.94,-4.91,-69.25,-1.81,-6.55,-0.44,0.15,0.3,15.83,4.2,0,0,4.19,0,1,1,11,27.9333411,-80.7095302,15,2025,4,12,19,30,39,2,5,154,73,1.5,0.8,1.2,0,0,0,0,39,0,0,0,0,0,25,26,0,30,0,0,31,0,19,26,0,38,0,38,29,0,0,0,0,0,0,0
6,11065,1,Zephyr2,0.8,3,   boost,191.72,101109,18,37.79,141.77,38.3,0,0,4.18,211.85,8.82,-6.37,-73.46,-2.18,-4.84,-0.44,0.15,0.31,15.89,4.2,0,0,4.19,0,1,1,11,27.9333411,-80.7095302,15,2025,4,12,19,30,39,2,5,154,73,1.5,0.8,1.2,0,0,0,0,39,0,0,0,0,0,25,26,0,30,0,0,31,0,19,26,0,38,0,38,29,0,0,0,0,0,0,0
6,11065,1,Zephyr2,0.81,3,   boost,191.23,101080,20.41,40.21,143.61,38.3,0,0,4.18,211.82,9.32,-6.71,-75.84,-1.57,-2.59,-0.44,0.15,0.31,15.92,4.2,0,0,4.19,0,1,1,11,27.9333411,-80.7095302,15,2025,4,12,19,30,39,2,5,154,73,1.5,0.8,1.2,0,0,0,0,39,0,0,0,0,0,25,26,0,30,0,0,31,0,19,26,0,38,0,38,29,0,0,0,0,0,0,0
6,11065,1,Zephyr2,0.82,3,   boost,191.23,101080,20.41,40.21,145.45,38.3,0,0,4.18,212.48,9.22,-6.12,-79.13,-1.08,-1.06,-0.44,0.16,0.31,15.93,4.2,0,0,4.19,0,1,1,11,27.9333411,-80.7095302,15,2025,4,12,19,30,39,2,5,154,73,1.5,0.8,1.2,0,0,0,0,39,0,0,0,0,0,25,26,0,30,0,0,31,0,19,26,0,38,0,38,29,0,0,0,0,0,0,0
6,11065,1,Zephyr2,0.83,3,   boost,194.66,101050,22.92,42.71,147.29,38.3,0,0,4.18,212.38,10.35,-7.44,-83.04,0.2,1.38,-0.44,0.16,0.32,15.92,4.2,0,0,4.19,0,1,1,11,27.9333411,-80.7095302,15,2025,4,12,19,30,39,2,5,154,73,1.5,0.8,1.2,0,0,0,0,39,0,0,0,0,0,25,26,0,30,0,0,31,0,19,26,0,38,0,38,29,0,0,0,0,0,0,0
6,11065,1,Zephyr2,0.84,3,   boost,190.25,101050,22.92,42.71,149.14,38.3,0,0,4.18,212.17,8.74,-7.05,-87.25,0.81,3.33,-0.44,0.16,0.32,15.89,4.2,0,0,4.19,0,1,1,11,27.9333411,-80.7095302,15,2025,4,12,19,30,39,2,5,154,73,1.5,0.8,1.2,0,0,0,0,39,0,0,0,0,0,25,26,0,30,0,0,31,0,19,26,0,38,0,38,29,0,0,0,0,0,0,0
6,11065,1,Zephyr2,0.85,3,   boost,192.7,101042,23.58,43.38,150.98,38.3,0,0,4.18,212.26,9.84,-6.93,-88.11,1.97,4.74,-0.44,0.16,0.33,15.84,4.2,0,0,4.19,0,1,1,11,27.9333411,-80.7095302,15,2025,4,12,19,30,39,2,5,154,73,1.5,0.8,1.2,0,0,0,0,39,0,0,0,0,0,25,26,0,30,0,0,31,0,19,26,0,38,0,38,29,0,0,0,0,0,0,0
6,11065,1,Zephyr2,0.86,3,   boost,190.74,101042,23.58,43.38,152.82,38.3,0,0,4.18,211.99,10.1,-5.42,-90.24,2.16,5.84,-0.44,0.16,0.33,15.78,4.2,0,0,4.19,0,1,1,11,27.9333411,-80.7095302,15,2025,4,12,19,30,39,2,5,154,73,1.5,0.8,1.2,0,0,0,0,39,0,0,0,0,0,25,26,0,30,0,0,31,0,19,26,0,38,0,38,29,0,0,0,0,0,0,0
6,11065,1,Zephyr2,0.87,3,   boost,192.21,101018,25.59,45.38,154.67,38.3,0,0,4.18,211.94,8.58,-8.1,-92.93,2.64,7.61,-0.44,0.16,0.34,15.7,4.2,0,0,4.19,0,1,1,11,27.9333411,-80.7095302,15,2025,4,12,19,30,39,2,5,154,73,1.5,0.8,1.2,0,0,0,0,39,0,0,0,0,0,25,26,0,30,0,0,31,0,19,26,0,38,0,38,29,0,0,0,0,0,0,0
6,11065,1,Zephyr2,0.88,3,   boost,192.21,101018,25.59,45.38,156.52,38.3,0,0,4.18,212.36,8.51,-6.87,-93.97,3.26,9.38,-0.44,0.16,0.34,15.6,4.2,0,0,4.19,0,1,1,11,27.9333411,-80.7095302,15,2025,4,12,19,30,39,2,5,154,73,1.5,0.8,1.2,0,0,0,0,39,0,0,0,0,0,25,26,0,30,0,0,31,0,19,26,0,38,0,38,29,0,0,0,0,0,0,0
6,11065,1,Zephyr2,0.89,3,   boost,193.68,100983,28.51,48.3,158.37,38.3,0,0,4.18,212.57,7.55,-7.11,-93.72,4.96,11.51,-0.44,0.16,0.34,15.48,4.2,0,0,4.19,0,1,1,11,27.9333411,-80.7095302,15,2025,4,12,19,30,39,2,5,154,73,1.5,0.8,1.2,0,0,0,0,39,0,0,0,0,0,25,26,0,30,0,0,31,0,19,26,0,38,0,38,29,0,0,0,0,0,0,0
6,11065,1,Zephyr2,0.9,3,   boost,192.7,100983,28.51,48.3,160.23,38.3,0,0,4.18,212.91,8.46,-7.62,-94.64,6.43,12.73,-0.43,0.16,0.35,15.34,4.2,0,0,4.19,0,1,1,11,27.9333411,-80.7095302,15,2025,4,12,19,30,39,2,5,154,73,1.5,0.8,1.2,0,0,0,0,39,0,0,0,0,0,25,26,0,30,0,0,31,0,19,26,0,38,0,38,29,0,0,0,0,0,0,0
6,11065,1,Zephyr2,0.91,3,   boost,193.68,100967,29.84,49.64,162.08,38.3,0,0,4.18,212.65,7.36,-7.06,-94.7,6.25,13.89,-0.43,0.16,0.36,15.19,4.2,0,0,4.19,0,1,1,11,27.9333411,-80.7095302,15,2025,4,12,19,30,39,2,5,154,73,1.5,0.8,1.2,0,0,0,0,39,0,0,0,0,0,25,26,0,30,0,0,31,0,19,26,0,38,0,38,29,0,0,0,0,0,0,0
6,11065,1,Zephyr2,0.92,3,   boost,194.17,100967,29.84,49.64,163.94,38.3,0,0,4.18,214.34,7.06,-8.84,-93.17,6.8,14.26,-0.43,0.16,0.36,15.04,4.2,0,0,4.19,0,1,1,11,27.9333411,-80.7095302,15,2025,4,12,19,30,39,2,5,154,73,1.5,0.8,1.2,0,0,0,0,39,0,0,0,0,0,25,26,0,30,0,0,31,0,19,26,0,38,0,38,29,0,0,0,0,0,0,0
6,11065,1,Zephyr2,0.93,3,   boost,191.72,100932,32.77,52.56,165.79,38.3,0,0,4.18,214.41,5.37,-7.06,-91.77,7.16,14.75,-0.43,0.16,0.36,14.88,4.2,0,0,4.19,0,1,1,11,27.9333411,-80.7095302,15,2025,4,12,19,30,39,2,5,154,73,1.5,0.8,1.2,0,0,0,0,39,0,0,0,0,0,25,26,0,30,0,0,31,0,19,26,0,38,0,38,29,0,0,0,0,0,0,0
6,11065,1,Zephyr2,0.94,3,   boost,187.31,100932,32.77,52.56,167.64,38.3,0,0,4.18,212.39,4.55,-7.02,-89.27,8.5,15.72,-0.43,0.16,0.37,14.71,4.2,0,0,4.19,0,1,1,11,27.9333411,-80.7095302,15,2025,4,12,19,30,39,2,5,154,73,1.5,0.8,1.2,0,0,0,0,39,0,0,0,0,0,25,26,0,30,0,0,31,0,19,26,0,38,0,38,29,0,0,0,0,0,0,0
6,11065,1,Zephyr2,0.95,3,   boost,189.76,100908,34.77,54.56,169.48,38.3,0,0,4.18,213.09,3.15,-6.72,-85.24,9.97,17.01,-0.43,0.16,0.37,14.52,4.2,0,0,4.19,0,1,1,11,27.9333411,-80.7095302,15,2025,4,12,19,30,39,2,5,154,73,1.5,0.8,1.2,0,0,0,0,39,0,0,0,0,0,25,26,0,30,0,0,31,0,19,26,0,38,0,38,29,0,0,0,0,0,0,0
6,11065,1,Zephyr2,0.96,3,   boost,193.68,100908,34.77,54.56,171.33,38.3,0,0,4.18,212.99,2.24,-4.91,-76.57,10.21,17.25,-0.43,0.16,0.37,14.33,4.2,0,0,4.19,0,1,1,11,27.9333411,-80.7095302,15,2025,4,12,19,30,39,2,5,154,73,1.5,0.8,1.2,0,0,0,0,39,0,0,0,0,0,25,26,0,30,0,0,31,0,19,26,0,38,0,38,29,0,0,0,0,0,0,0
6,11065,1,Zephyr2,0.97,3,   boost,191.72,100890,36.27,56.07,173.18,38.2,0,0,4.18,212.18,2.59,-6.29,-66.93,11.13,17.43,-0.43,0.16,0.38,14.12,4.2,0,0,4.19,0,1,1,11,27.9333411,-80.7095302,15,2025,4,12,19,30,39,2,5,154,73,1.5,0.8,1.2,0,0,0,0,39,0,0,0,0,0,25,26,0,30,0,0,31,0,19,26,0,38,0,38,29,0,0,0,0,0,0,0
6,11065,1,Zephyr2,0.98,3,   boost,190.74,100890,36.27,56.07,175.03,38.2,0,0,4.18,211.9,1.21,-4.73,-57.77,11.13,17.49,-0.43,0.16,0.38,13.92,4.18,0,0,4.2,0,1,1,11,27.9333411,-80.7095302,15,2025,4,12,19,30,39,2,5,154,73,1.5,0.8,1.2,0,0,0,0,39,0,0,0,0,0,25,26,0,30,0,0,31,0,19,26,0,38,0,38,29,0,0,0,0,0,0,0
6,11065,1,Zephyr2,0.98,3,   boost,190.74,100890,36.27,56.07,175.03,38.2,0,0,4.18,211.9,1.21,-4.73,-57.77,11.13,17.49,-0.43,0.16,0.38,13.92,4.18,0,0,4.2,0,1,1,11,27.9333411,-80.7095302,15,2025,4,12,19,30,39,2,5,154,73,1.5,0.8,1.2,0,0,0,0,39,0,0,0,0,0,25,26,0,30,0,0,31,0,19,26,0,38,0,38,29,0,0,0,0,0,0,0
6,11065,1,Zephyr2,0.99,3,   boost,191.23,100857,39.03,58.82,176.89,38.3,0,0,4.18,211.53,0.27,-5.35,-47.82,10.95,16.76,-0.43,0.16,0.38,13.73,4.18,0,0,4.2,0,1,1,11,27.9333411,-80.7095302,15,2025,4,12,19,30,39,2,5,154,73,1.5,0.8,1.2,0,0,0,0,39,0,0,0,0,0,25,26,0,30,0,0,31,0,19,26,0,38,0,38,29,0,0,0,0,0,0,0
6,11065,1,Zephyr2,1,3,   boost,189.76,100857,39.03,58.82,178.75,38.3,0,0,4.18,211.54,-0.4,-4.02,-35.19,11.25,17.31,-0.43,0.16,0.38,13.53,4.18,0,0,4.2,0,1,1,11,27.9333411,-80.7095302,15,2025,4,12,19,30,39,2,5,154,73,1.5,0.8,1.2,0,0,0,0,39,0,0,0,0,0,25,26,0,30,0,0,31,0,19,26,0,38,0,38,29,0,0,0,0,0,0,0
6,11065,1,Zephyr2,1.01,3,   boost,193.68,100850,39.62,59.41,180.61,38.3,0,0,4.18,211.81,-2.05,-3.37,-25.24,11.49,16.95,-0.43,0.15,0.38,13.33,4.18,0,0,4.2,0,1,1,11,27.9333411,-80.7095302,15,2025,4,12,19,30,39,2,5,154,73,1.5,0.8,1.2,0,0,0,0,39,0,0,0,0,0,25,26,0,30,0,0,31,0,19,26,0,38,0,38,29,0,0,0,0,0,0,0
6,11065,1,Zephyr2,1.02,3,   boost,193.19,100850,39.62,59.41,182.47,38.3,0,0,4.18,212.36,-2.38,-3.53,-14.62,10.82,16.27,-0.43,0.15,0.38,13.14,4.18,0,0,4.2,0,1,1,11,27.9333411,-80.7095302,15,2025,4,12,19,30,39,2,5,154,73,1.5,0.8,1.2,0,0,0,0,39,0,0,0,0,0,25,26,0,30,0,0,31,0,19,26,0,38,0,38,29,0,0,0,0,0,0,0
6,11065,1,Zephyr2,1.03,3,   boost,189.27,100835,40.87,60.66,184.34,38.3,0,0,4.18,211.27,-3.25,-3.21,-6.69,11.43,15.79,-0.43,0.15,0.38,12.95,4.18,0,0,4.2,0,1,1,11,27.9333411,-80.7095302,15,2025,4,12,19,30,39,2,5,154,73,1.5,0.8,1.2,0,0,0,0,39,0,0,0,0,0,25,26,0,30,0,0,31,0,19,26,0,38,0,38,29,0,0,0,0,0,0,0
6,11065,1,Zephyr2,1.04,3,   boost,192.7,100835,40.87,60.66,186.21,38.3,0,0,4.18,210.83,-4.33,-2.49,0.46,11.25,14.81,-0.42,0.15,0.38,12.77,4.18,0,0,4.2,0,1,1,11,27.9333411,-80.7095302,15,2025,4,12,19,30,39,2,5,154,73,1.5,0.8,1.2,0,0,0,0,39,0,0,0,0,0,25,26,0,30,0,0,31,0,19,26,0,38,0,38,29,0,0,0,0,0,0,0
6,11065,1,Zephyr2,1.05,3,   boost,194.17,100808,43.13,62.92,188.08,38.3,0,0,4.18,211.43,-4.11,-2,7.11,10.95,13.53,-0.42,0.15,0.38,12.6,4.18,0,0,4.2,0,1,1,11,27.9333411,-80.7095302,15,2025,4,12,19,30,39,2,5,154,73,1.5,0.8,1.2,0,0,0,0,39,0,0,0,0,0,25,26,0,30,0,0,31,0,19,26,0,38,0,38,29,0,0,0,0,0,0,0
6,11065,1,Zephyr2,1.06,3,   boost,190.74,100808,43.13,62.92,189.94,38.3,0,0,4.18,210.47,-5.67,-1.42,13.27,10.88,13.41,-0.42,0.15,0.38,12.43,4.18,0,0,4.2,0,1,1,11,27.9333411,-80.7095302,15,2025,4,12,19,30,39,2,5,154,73,1.5,0.8,1.2,0,0,0,0,39,0,0,0,0,0,25,26,0,30,0,0,31,0,19,26,0,38,0,38,29,0,0,0,0,0,0,0
6,11065,1,Zephyr2,1.07,3,   boost,189.27,100777,45.72,65.51,191.81,38.2,0,0,4.18,211.27,-5.62,-0.23,19.44,9.97,12.25,-0.42,0.15,0.38,12.28,4.18,0,0,4.2,0,1,1,11,27.9333411,-80.7095302,15,2025,4,12,19,30,39,2,5,154,73,1.5,0.8,1.2,0,0,0,0,39,0,0,0,0,0,25,26,0,30,0,0,31,0,19,26,0,38,0,38,29,0,0,0,0,0,0,0
6,11065,1,Zephyr2,1.08,3,   boost,189.76,100777,45.72,65.51,193.67,38.2,0,0,4.18,210.86,-6.71,-0.37,29.81,9.91,11.21,-0.42,0.15,0.37,12.13,4.18,0,0,4.2,0,1,1,11,27.9333411,-80.7095302,15,2025,4,12,19,30,39,2,5,154,73,1.5,0.8,1.2,0,0,0,0,39,0,0,0,0,0,25,26,0,30,0,0,31,0,19,26,0,38,0,38,29,0,0,0,0,0,0,0
6,11065,1,Zephyr2,1.09,3,   boost,191.72,100774,45.97,65.76,195.53,38.3,0,0,4.18,210.72,-6.95,0.48,35.8,9.3,10.29,-0.42,0.15,0.37,11.99,4.18,0,0,4.2,0,1,1,11,27.9333411,-80.7095302,15,2025,4,12,19,30,39,2,5,154,73,1.5,0.8,1.2,0,0,0,0,39,0,0,0,0,0,25,26,0,30,0,0,31,0,19,26,0,38,0,38,29,0,0,0,0,0,0,0
6,11065,1,Zephyr2,1.1,3,   boost,190.74,100774,45.97,65.76,197.39,38.3,0,0,4.18,210.52,-7.59,0.74,45.44,9.36,9.5,-0.42,0.15,0.36,11.86,4.18,0,0,4.2,0,1,1,11,27.9333411,-80.7095302,15,2025,4,12,19,30,39,2,5,154,73,1.5,0.8,1.2,0,0,0,0,39,0,0,0,0,0,25,26,0,30,0,0,31,0,19,26,0,38,0,38,29,0,0,0,0,0,0,0
6,11065,1,Zephyr2,1.11,3,   boost,190.25,100747,48.23,68.02,199.25,38.3,0,0,4.18,211.51,-8.66,0.75,54.78,8.57,8.4,-0.42,0.15,0.36,11.74,4.18,0,0,4.2,0,1,1,11,27.9333411,-80.7095302,15,2025,4,12,19,30,39,2,5,154,73,1.5,0.8,1.2,0,0,0,0,39,0,0,0,0,0,25,26,0,30,0,0,31,0,19,26,0,38,0,38,29,0,0,0,0,0,0,0
6,11065,1,Zephyr2,1.12,3,   boost,187.8,100747,48.23,68.02,201.1,38.3,0,0,4.18,209.86,-7.82,1.78,62.47,7.95,7.18,-0.42,0.15,0.36,11.63,4.18,0,0,4.2,0,1,1,11,27.9333411,-80.7095302,15,2025,4,12,19,30,39,2,5,154,73,1.5,0.8,1.2,0,0,0,0,39,0,0,0,0,0,25,26,0,30,0,0,31,0,19,26,0,38,0,38,29,0,0,0,0,0,0,0
6,11065,1,Zephyr2,1.13,3,   boost,191.23,100717,50.73,70.53,202.95,38.3,0,0,4.18,209.19,-9.29,1.29,74.37,8.75,6.51,-0.42,0.15,0.35,11.52,4.18,0,0,4.2,0,1,1,11,27.9333411,-80.7095302,15,2025,4,12,19,30,39,2,5,154,73,1.5,0.8,1.2,0,0,0,0,39,0,0,0,0,0,25,26,0,30,0,0,31,0,19,26,0,38,0,38,29,0,0,0,0,0,0,0
6,11065,1,Zephyr2,1.14,3,   boost,185.84,100717,50.73,70.53,204.8,38.3,0,0,4.18,208.91,-9.42,2.36,83.4,7.53,4.62,-0.42,0.14,0.35,11.44,4.18,0,0,4.2,0,1,1,11,27.9333411,-80.7095302,15,2025,4,12,19,30,39,2,5,154,73,1.5,0.8,1.2,0,0,0,0,39,0,0,0,0,0,25,26,0,30,0,0,31,0,19,26,0,38,0,38,29,0,0,0,0,0,0,0
6,11065,1,Zephyr2,1.15,3,   boost,189.76,100691,52.91,72.7,206.64,38.3,0,0,4.18,209.13,-9.58,2.23,93.23,6.43,3.09,-0.42,0.14,0.34,11.37,4.18,0,0,4.2,0,1,1,11,27.9333411,-80.7095302,15,2025,4,12,19,30,39,2,5,154,73,1.5,0.8,1.2,0,0,0,0,39,0,0,0,0,0,25,26,0,30,0,0,31,0,19,26,0,38,0,38,29,0,0,0,0,0,0,0
6,11065,1,Zephyr2,1.16,3,   boost,187.31,100691,52.91,72.7,208.48,38.3,0,0,4.18,207.73,-10.37,2.22,102.81,5.51,2.24,-0.42,0.14,0.34,11.31,4.18,0,0,4.2,0,1,1,11,27.9333411,-80.7095302,15,2025,4,12,19,30,39,2,5,154,73,1.5,0.8,1.2,0,0,0,0,39,0,0,0,0,0,25,26,0,30,0,0,31,0,19,26,0,38,0,38,29,0,0,0,0,0,0,0
6,11065,1,Zephyr2,1.17,3,   boost,185.35,100671,54.58,74.38,210.32,38.3,0,0,4.18,207.46,-10.03,2.78,113.31,4.29,0.16,-0.42,0.14,0.33,11.28,4.18,0,0,4.2,0,1,1,11,27.9333411,-80.7095302,15,2025,4,12,19,30,39,2,5,154,73,1.5,0.8,1.2,0,0,0,0,39,0,0,0,0,0,25,26,0,30,0,0,31,0,19,26,0,38,0,38,29,0,0,0,0,0,0,0
6,11065,1,Zephyr2,1.18,3,   boost,191.23,100671,54.58,74.38,212.16,38.3,0,0,4.18,207.51,-10.79,1.87,121.43,4.41,-0.39,-0.42,0.14,0.32,11.26,4.18,0,0,4.2,0,1,1,11,27.9333411,-80.7095302,15,2025,4,12,19,30,39,2,5,154,73,1.5,0.8,1.2,0,0,0,0,39,0,0,0,0,0,25,26,0,30,0,0,31,0,19,26,0,38,0,38,29,0,0,0,0,0,0,0
6,11065,1,Zephyr2,1.19,3,   boost,184.86,100647,56.59,76.38,213.99,38.3,0,0,4.18,207.24,-9.44,3.4,130.95,3.68,-2.22,-0.42,0.14,0.32,11.25,4.18,0,0,4.2,0,1,1,11,27.9333411,-80.7095302,15,2025,4,12,19,30,39,2,5,154,73,1.5,0.8,1.2,0,0,0,0,39,0,0,0,0,0,25,26,0,30,0,0,31,0,19,26,0,38,0,38,29,0,0,0,0,0,0,0
6,11065,1,Zephyr2,1.2,3,   boost,185.84,100647,56.59,76.38,215.82,38.3,0,0,4.18,206.99,-8.92,1.71,140.78,0.69,-3.38,-0.42,0.14,0.31,11.27,4.18,0,0,4.2,0,1,1,11,27.9333411,-80.7095302,15,2025,4,12,19,30,39,2,5,154,73,1.5,0.8,1.2,0,0,0,0,39,0,0,0,0,0,25,26,0,30,0,0,31,0,19,26,0,38,0,38,29,0,0,0,0,0,0,0
6,11065,1,Zephyr2,1.21,3,   boost,188.29,100621,58.77,78.56,217.64,38.3,0,0,4.18,207.38,-10.62,3.05,151.15,1.36,-4.42,-0.42,0.13,0.3,11.3,4.18,0,0,4.2,0,1,1,11,27.9333411,-80.7095302,15,2025,4,12,19,30,39,2,5,154,73,1.5,0.8,1.2,0,0,0,0,39,0,0,0,0,0,25,26,0,30,0,0,31,0,19,26,0,38,0,38,29,0,0,0,0,0,0,0
6,11065,1,Zephyr2,1.22,3,   boost,184.37,100621,58.77,78.56,219.47,38.3,0,0,4.18,206.02,-7.23,3.2,157.99,0.94,-6.61,-0.42,0.13,0.3,11.34,4.18,0,0,4.2,0,1,1,11,27.9333411,-80.7095302,15,2025,4,12,19,30,39,2,5,154,73,1.5,0.8,1.2,0,0,0,0,39,0,0,0,0,0,25,26,0,30,0,0,31,0,19,26,0,38,0,38,29,0,0,0,0,0,0,0
6,11065,1,Zephyr2,1.23,3,   boost,186.33,100609,59.77,79.57,221.28,38.3,0,0,4.18,204.88,-10.14,1.24,167.33,1.73,-6.98,-0.42,0.13,0.29,11.39,4.18,0,0,4.2,0,1,1,11,27.9333411,-80.7095302,15,2025,4,12,19,30,39,2,5,154,73,1.5,0.8,1.2,0,0,0,0,39,0,0,0,0,0,25,26,0,30,0,0,31,0,19,26,0,38,0,38,29,0,0,0,0,0,0,0
6,11065,1,Zephyr2,1.24,3,   boost,183.87,100609,59.77,79.57,223.08,38.3,0,0,4.18,203.71,-8.08,3.69,174.16,-0.65,-8.51,-0.43,0.13,0.28,11.47,4.18,0,0,4.2,0,1,1,11,27.9333411,-80.7095302,15,2025,4,12,19,30,39,2,5,154,73,1.5,0.8,1.2,0,0,0,0,39,0,0,0,0,0,25,26,0,30,0,0,31,0,19,26,0,38,0,38,29,0,0,0,0,0,0,0
6,11065,1,Zephyr2,1.25,3,   boost,182.89,100572,62.87,82.66,224.88,38.2,0,0,4.18,203.32,-7.87,2.35,181.12,0.02,-8.87,-0.43,0.12,0.27,11.54,4.18,0,0,4.2,0,1,1,11,27.9333411,-80.7095302,15,2025,4,12,19,30,39,2,5,154,73,1.5,0.8,1.2,0,0,0,0,39,0,0,0,0,0,25,26,0,30,0,0,31,0,19,26,0,38,0,38,29,0,0,0,0,0,0,0
6,11065,1,Zephyr2,1.26,3,   boost,181.42,100572,62.87,82.66,226.66,38.2,0,0,4.18,202.89,-7.81,3.63,187.71,-0.53,-9.12,-0.43,0.12,0.26,11.62,4.18,0,0,4.2,0,1,1,11,27.9333411,-80.7095302,15,2025,4,12,19,30,39,2,5,154,73,1.5,0.8,1.2,0,0,0,0,39,0,0,0,0,0,25,26,0,30,0,0,31,0,19,26,0,38,0,38,29,0,0,0,0,0,0,0
6,11065,1,Zephyr2,1.26,3,   boost,181.42,100572,62.87,82.66,226.66,38.2,0,0,4.18,202.89,-7.81,3.63,187.71,-0.53,-9.12,-0.43,0.12,0.26,11.62,4.18,0,0,4.2,0,1,1,11,27.9333411,-80.7095302,15,2025,4,12,19,30,39,2,5,154,73,1.5,0.8,1.2,0,0,0,0,39,0,0,0,0,0,25,26,0,30,0,0,31,0,19,26,0,38,0,38,29,0,0,0,0,0,0,0
