#version,serial,flight,call,time,state,state_name,acceleration,pressure,altitude,height,speed,temperature,drogue_voltage,main_voltage,battery_voltage,accel_x,accel_y,accel_z,gyro_roll,gyro_pitch,gyro_yaw,mag_x,mag_y,mag_z,tilt,pyro,igniter_a,igniter_b,igniter_c,igniter_d,connected,locked,nsat,latitude,longitude,altitude,year,month,day,hour,minute,second,pad_dist,pad_range,pad_az,pad_el,pdop,hdop,vdop,sat01,sat02,sat03,sat04,sat05,sat06,sat07,sat08,sat09,sat10,sat11,sat12,sat13,sat14,sat15,sat16,sat17,sat18,sat19,sat20,sat21,sat22,sat23,sat24,sat25,sat26,sat27,sat28,sat29,sat30,sat31,sat32
6, 11076, 1,Zephyr ,    -0.30, 3,   boost,   -0.00, 101494.00,  -14.06,    0.33,    0.01, 33.2, 4.11, 4.10, 4.11,   9.85,  -0.55,  -0.04,  -2.10,   0.35,   0.49,   0.22,   0.31,  -0.12,   2.64, 4.10, 4.11, 0.00, 0.00, 0.00, 1, 1, 12,  27.9333769, -80.7095404,     5.0, 2025,  4, 12, 19, 30, 38,        0,        0,   0,   0,   1.4,   0.7,   1.2,  0,  0,  0, 26, 40, 25,  0,  0,  0,  0, 39, 42,  0, 32,  0,  0, 38,  0, 27, 36,  0, 31,  0, 28, 34,  0,  0,  0,  0,  0,  0,  0
6, 11076, 1,Zephyr ,    -0.29, 3,   boost,    1.96, 101502.00,  -14.72,   -0.33,    0.01, 33.2, 4.11, 4.10, 4.11,   9.87,  -0.50,   0.01,  -2.10,   0.41,   0.67,   0.22,   0.31,  -0.12,   2.64, 4.10, 4.11, 0.00, 0.00, 0.00, 1, 1, 12,  27.9333769, -80.7095404,     5.0, 2025,  4, 12, 19, 30, 38,        0,        0,   0,   0,   1.4,   0.7,   1.2,  0,  0,  0, 26, 40, 25,  0,  0,  0,  0, 39, 42,  0, 32,  0,  0, 38,  0, 27, 36,  0, 31,  0, 28, 34,  0,  0,  0,  0,  0,  0,  0
6, 11076, 1,Zephyr ,    -0.28, 3,   boost,    0.49, 101502.00,  -14.72,   -0.33,    0.01, 33.2, 4.11, 4.10, 4.11,   9.88,  -0.52,   0.02,  -2.22,   0.35,   0.55,   0.22,   0.31,  -0.12,   2.64, 4.10, 4.11, 0.00, 0.00, 0.00, 1, 1, 12,  27.9333769, -80.7095404,     5.0, 2025,  4, 12, 19, 30, 38,        0,        0,   0,   0,   1.4,   0.7,   1.2,  0,  0,  0, 26, 40, 25,  0,  0,  0,  0, 39, 42,  0, 32,  0,  0, 38,  0, 27, 36,  0, 31,  0, 28, 34,  0,  0,  0,  0,  0,  0,  0
6, 11076, 1,Zephyr ,    -0.27, 3,   boost,   -0.49, 101496.00,  -14.22,    0.17,    0.01, 33.2, 4.11, 4.10, 4.11,   9.94,  -0.57,  -0.07,  -2.22,   0.16,   0.73,   0.22,   0.31,  -0.12,   2.64, 4.10, 4.11, 0.00, 0.00, 0.00, 1, 1, 12,  27.9333769, -80.7095404,     5.0, 2025,  4, 12, 19, 30, 38,        0,        0,   0,   0,   1.4,   0.7,   1.2,  0,  0,  0, 26, 40, 25,  0,  0,  0,  0, 39, 42,  0, 32,  0,  0, 38,  0, 27, 36,  0, 31,  0, 28, 34,  0,  0,  0,  0,  0,  0,  0
6, 11076, 1,Zephyr ,    -0.26, 3,   boost,   -0.00, 101496.00,  -14.22,    0.17,    0.01, 33.2, 4.11, 4.10, 4.11,   9.79,  -0.60,   0.13,  -2.59,   0.53,   0.31,   0.22,   0.31,  -0.12,   2.64, 4.10, 4.11, 0.00, 0.00, 0.00, 1, 1, 12,  27.9333769, -80.7095404,     5.0, 2025,  4, 12, 19, 30, 38,        0,        0,   0,   0,   1.4,   0.7,   1.2,  0,  0,  0, 26, 40, 25,  0,  0,  0,  0, 39, 42,  0, 32,  0,  0, 38,  0, 27, 36,  0, 31,  0, 28, 34,  0,  0,  0,  0,  0,  0,  0
6, 11076, 1,Zephyr ,    -0.25, 3,   boost,   -1.96, 101496.00,  -14.22,    0.17,    0.01, 33.2, 4.11, 4.10, 4.11,   9.86,  -0.47,  -0.10,  -2.65,   0.59,   0.43,   0.22,   0.31,  -0.12,   2.64, 4.10, 4.11, 0.00, 0.00, 0.00, 1, 1, 12,  27.9333769, -80.7095404,     5.0, 2025,  4, 12, 19, 30, 38,        0,        0,   0,   0,   1.4,   0.7,   1.2,  0,  0,  0, 26, 40, 25,  0,  0,  0,  0, 39, 42,  0, 32,  0,  0, 38,  0, 27, 36,  0, 31,  0, 28, 34,  0,  0,  0,  0,  0,  0,  0
6, 11076, 1,Zephyr ,    -0.24, 3,   boost,    0.98, 101496.00,  -14.22,    0.17,    0.01, 33.2, 4.11, 4.10, 4.11,   9.67,  -0.56,   0.04,  -2.71,   0.28,   0.67,   0.22,   0.31,  -0.12,   2.64, 4.10, 4.11, 0.00, 0.00, 0.00, 1, 1, 12,  27.9333769, -80.7095404,     5.0, 2025,  4, 12, 19, 30, 38,        0,        0,   0,   0,   1.4,   0.7,   1.2,  0,  0,  0, 26, 40, 25,  0,  0,  0,  0, 39, 42,  0, 32,  0,  0, 38,  0, 27, 36,  0, 31,  0, 28, 34,  0,  0,  0,  0,  0,  0,  0
6, 11076, 1,Zephyr ,    -0.23, 3,   boost,   -0.49, 101498.00,  -14.39,    0.00,    0.01, 33.2, 4.11, 4.10, 4.11,   9.94,  -0.57,  -0.08,  -2.83,   0.47,   0.61,   0.22,   0.31,  -0.12,   2.64, 4.10, 4.11, 0.00, 0.00, 0.00, 1, 1, 12,  27.9333769, -80.7095404,     5.0, 2025,  4, 12, 19, 30, 38,        0,        0,   0,   0,   1.4,   0.7,   1.2,  0,  0,  0, 26, 40, 25,  0,  0,  0,  0, 39, 42,  0, 32,  0,  0, 38,  0, 27, 36,  0, 31,  0, 28, 34,  0,  0,  0,  0,  0,  0,  0
6, 11076, 1,Zephyr ,    -0.22, 3,   boost,   -0.00, 101498.00,  -14.39,    0.00,    0.01, 33.2, 4.11, 4.10, 4.11,   9.73,  -0.62,   0.08,  -2.89,   0.35,   0.67,   0.23,   0.31,  -0.12,   2.64, 4.10, 4.11, 0.00, 0.00, 0.00, 1, 1, 12,  27.9333769, -80.7095404,     5.0, 2025,  4, 12, 19, 30, 38,        0,        0,   0,   0,   1.4,   0.7,   1.2,  0,  0,  0, 26, 40, 25,  0,  0,  0,  0, 39, 42,  0, 32,  0,  0, 38,  0, 27, 36,  0, 31,  0, 28, 34,  0,  0,  0,  0,  0,  0,  0
6, 11076, 1,Zephyr ,    -0.21, 3,   boost,    1.47, 101492.00,  -13.89,    0.50,    0.02, 33.2, 4.11, 4.10, 4.11,   9.94,  -0.50,   0.03,  -3.26,   0.28,   0.73,   0.23,   0.31,  -0.11,   2.64, 4.10, 4.11, 0.00, 0.00, 0.00, 1, 1, 12,  27.9333769, -80.7095404,     5.0, 2025,  4, 12, 19, 30, 38,        0,        0,   0,   0,   1.4,   0.7,   1.2,  0,  0,  0, 26, 40, 25,  0,  0,  0,  0, 39, 42,  0, 32,  0,  0, 38,  0, 27, 36,  0, 31,  0, 28, 34,  0,  0,  0,  0,  0,  0,  0
6, 11076, 1,Zephyr ,    -0.20, 3,   boost,    0.49, 101492.00,  -13.89,    0.50,    0.03, 33.2, 4.11, 4.10, 4.11,   9.81,  -0.47,   0.01,  -3.32,   0.10,   0.55,   0.22,   0.31,  -0.12,   2.64, 4.10, 4.11, 0.00, 0.00, 0.00, 1, 1, 12,  27.9333769, -80.7095404,     5.0, 2025,  4, 12, 19, 30, 38,        0,        0,   0,   0,   1.4,   0.7,   1.2,  0,  0,  0, 26, 40, 25,  0,  0,  0,  0, 39, 42,  0, 32,  0,  0, 38,  0, 27, 36,  0, 31,  0, 28, 34,  0,  0,  0,  0,  0,  0,  0
6, 11076, 1,Zephyr ,    -0.19, 3,   boost,    2.45, 101503.00,  -14.81,   -0.42,    0.04, 33.2, 4.11, 4.10, 4.11,   9.91,  -0.57,  -0.01,  -3.56,  -0.08,   0.79,   0.22,   0.31,  -0.11,   2.64, 4.10, 4.11, 0.00, 0.00, 0.00, 1, 1, 12,  27.9333769, -80.7095404,     5.0, 2025,  4, 12, 19, 30, 38,        0,        0,   0,   0,   1.4,   0.7,   1.2,  0,  0,  0, 26, 40, 25,  0,  0,  0,  0, 39, 42,  0, 32,  0,  0, 38,  0, 27, 36,  0, 31,  0, 28, 34,  0,  0,  0,  0,  0,  0,  0
6, 11076, 1,Zephyr ,    -0.18, 3,   boost,    0.98, 101503.00,  -14.81,   -0.42,    0.04, 33.2, 4.11, 4.10, 4.11,   9.80,  -0.50,  -0.06,  -3.87,   0.41,   0.67,   0.23,   0.31,  -0.11,   2.64, 4.10, 4.11, 0.00, 0.00, 0.00, 1, 1, 12,  27.9333769, -80.7095404,     5.0, 2025,  4, 12, 19, 30, 38,        0,        0,   0,   0,   1.4,   0.7,   1.2,  0,  0,  0, 26, 40, 25,  0,  0,  0,  0, 39, 42,  0, 32,  0,  0, 38,  0, 27, 36,  0, 31,  0, 28, 34,  0,  0,  0,  0,  0,  0,  0
6, 11076, 1,Zephyr ,    -0.17, 3,   boost,    0.49, 101500.00,  -14.56,   -0.17,    0.05, 33.2, 4.11, 4.10, 4.11,   9.89,  -0.53,   0.05,  -4.42,   0.35,   0.43,   0.22,   0.31,  -0.11,   2.64, 4.10, 4.11, 0.00, 0.00, 0.00, 1, 1, 12,  27.9333769, -80.7095404,     5.0, 2025,  4, 12, 19, 30, 38,        0,        0,   0,   0,   1.4,   0.7,   1.2,  0,  0,  0, 26, 40, 25,  0,  0,  0,  0, 39, 42,  0, 32,  0,  0, 38,  0, 27, 36,  0, 31,  0, 28, 34,  0,  0,  0,  0,  0,  0,  0
6, 11076, 1,Zephyr ,    -0.16, 3,   boost,   -0.49, 101500.00,  -14.56,   -0.17,    0.06, 33.2, 4.11, 4.10, 4.11,   9.82,  -0.48,  -0.05,  -4.66,   0.47,   0.79,   0.23,   0.31,  -0.11,   2.64, 4.10, 4.11, 0.00, 0.00, 0.00, 1, 1, 12,  27.9333769, -80.7095404,     5.0, 2025,  4, 12, 19, 30, 38,        0,        0,   0,   0,   1.4,   0.7,   1.2,  0,  0,  0, 26, 40, 25,  0,  0,  0,  0, 39, 42,  0, 32,  0,  0, 38,  0, 27, 36,  0, 31,  0, 28, 34,  0,  0,  0,  0,  0,  0,  0
6, 11076, 1,Zephyr ,    -0.15, 3,   boost,    0.49, 101497.00,  -14.31,    0.08,    0.06, 33.2, 4.11, 4.10, 4.11,   9.91,  -0.50,  -0.05,  -4.66,   0.22,   0.85,   0.23,   0.31,  -0.11,   2.64, 4.10, 4.11, 0.00, 0.00, 0.00, 1, 1, 12,  27.9333769, -80.7095404,     5.0, 2025,  4, 12, 19, 30, 38,        0,        0,   0,   0,   1.4,   0.7,   1.2,  0,  0,  0, 26, 40, 25,  0,  0,  0,  0, 39, 42,  0, 32,  0,  0, 38,  0, 27, 36,  0, 31,  0, 28, 34,  0,  0,  0,  0,  0,  0,  0
6, 11076, 1,Zephyr ,    -0.14, 3,   boost,   -0.00, 101497.00,  -14.31,    0.08,    0.06, 33.2, 4.11, 4.10, 4.11,   9.76,  -0.57,  -0.04,  -4.60,   0.35,   0.61,   0.22,   0.31,  -0.11,   2.64, 4.10, 4.11, 0.00, 0.00, 0.00, 1, 1, 12,  27.9333769, -80.7095404,     5.0, 2025,  4, 12, 19, 30, 38,        0,        0,   0,   0,   1.4,   0.7,   1.2,  0,  0,  0, 26, 40, 25,  0,  0,  0,  0, 39, 42,  0, 32,  0,  0, 38,  0, 27, 36,  0, 31,  0, 28, 34,  0,  0,  0,  0,  0,  0,  0
6, 11076, 1,Zephyr ,    -0.13, 3,   boost,   -0.00, 101502.00,  -14.72,   -0.33,    0.06, 33.2, 4.11, 4.10, 4.11,   9.85,  -0.52,   0.05,  -4.91,   0.28,   0.73,   0.22,   0.31,  -0.11,   2.64, 4.10, 4.11, 0.00, 0.00, 0.00, 1, 1, 12,  27.9333769, -80.7095404,     5.0, 2025,  4, 12, 19, 30, 38,        0,        0,   0,   0,   1.4,   0.7,   1.2,  0,  0,  0, 26, 40, 25,  0,  0,  0,  0, 39, 42,  0, 32,  0,  0, 38,  0, 27, 36,  0, 31,  0, 28, 34,  0,  0,  0,  0,  0,  0,  0
6, 11076, 1,Zephyr ,    -0.12, 3,   boost,   -0.49, 101502.00,  -14.72,   -0.33,    0.06, 33.2, 4.11, 4.10, 4.11,   9.74,  -0.56,  -0.07,  -5.03,   0.47,   1.04,   0.23,   0.31,  -0.11,   2.64, 4.10, 4.11, 0.00, 0.00, 0.00, 1, 1, 12,  27.9333769, -80.7095404,     5.0, 2025,  4, 12, 19, 30, 38,        0,        0,   0,   0,   1.4,   0.7,   1.2,  0,  0,  0, 26, 40, 25,  0,  0,  0,  0, 39, 42,  0, 32,  0,  0, 38,  0, 27, 36,  0, 31,  0, 28, 34,  0,  0,  0,  0,  0,  0,  0
6, 11076, 1,Zephyr ,    -0.11, 3,   boost,   -0.00, 101499.00,  -14.47,   -0.08,    0.06, 33.2, 4.11, 4.10, 4.11,   9.88,  -0.56,   0.05,  -4.97,   0.47,   0.79,   0.23,   0.31,  -0.11,   2.64, 4.10, 4.11, 0.00, 0.00, 0.00, 1, 1, 12,  27.9333769, -80.7095404,     5.0, 2025,  4, 12, 19, 30, 38,        0,        0,   0,   0,   1.4,   0.7,   1.2,  0,  0,  0, 26, 40, 25,  0,  0,  0,  0, 39, 42,  0, 32,  0,  0, 38,  0, 27, 36,  0, 31,  0, 28, 34,  0,  0,  0,  0,  0,  0,  0
6, 11076, 1,Zephyr ,    -0.10, 3,   boost,   -0.49, 101499.00,  -14.47,   -0.08,    0.09, 33.2, 4.11, 4.10, 4.11,   9.82,  -0.36,  -0.15,  -4.85,   0.22,   0.73,   0.23,   0.31,  -0.11,   2.64, 4.10, 4.11, 0.00, 0.00, 0.00, 1, 1, 12,  27.9333769, -80.7095404,     5.0, 2025,  4, 12, 19, 30, 38,        0,        0,   0,   0,   1.4,   0.7,   1.2,  0,  0,  0, 26, 40, 25,  0,  0,  0,  0, 39, 42,  0, 32,  0,  0, 38,  0, 27, 36,  0, 31,  0, 28, 34,  0,  0,  0,  0,  0,  0,  0
6, 11076, 1,Zephyr ,    -0.09, 3,   boost,   -0.98, 101505.00,  -14.97,   -0.58,    0.19, 33.2, 4.11, 4.10, 4.11,   9.90,  -0.37,   0.09,  -4.54,   0.28,   0.73,   0.23,   0.31,  -0.11,   2.64, 4.10, 4.11, 0.00, 0.00, 0.00, 1, 1, 12,  27.9333769, -80.7095404,     5.0, 2025,  4, 12, 19, 30, 38,        0,        0,   0,   0,   1.4,   0.7,   1.2,  0,  0,  0, 26, 40, 25,  0,  0,  0,  0, 39, 42,  0, 32,  0,  0, 38,  0, 27, 36,  0, 31,  0, 28, 34,  0,  0,  0,  0,  0,  0,  0
6, 11076, 1,Zephyr ,    -0.08, 3,   boost,    0.98, 101505.00,  -14.97,   -0.58,    0.41, 33.2, 4.11, 4.10, 4.11,   9.89,  -0.52,   0.04,  -5.09,   0.41,   0.73,   0.22,   0.31,  -0.11,   2.64, 4.10, 4.11, 0.00, 0.00, 0.00, 1, 1, 12,  27.9333769, -80.7095404,     5.0, 2025,  4, 12, 19, 30, 38,        0,        0,   0,   0,   1.4,   0.7,   1.2,  0,  0,  0, 26, 40, 25,  0,  0,  0,  0, 39, 42,  0, 32,  0,  0, 38,  0, 27, 36,  0, 31,  0, 28, 34,  0,  0,  0,  0,  0,  0,  0
6, 11076, 1,Zephyr ,    -0.07, 3,   boost,   54.92, 101502.00,  -14.72,   -0.33,    0.80, 33.2, 4.11, 4.10, 4.11,  10.28,  -0.60,  -0.06,  -5.03,   0.35,   0.73,   0.22,   0.31,  -0.11,   2.64, 4.10, 4.11, 0.00, 0.00, 0.00, 1, 1, 12,  27.9333769, -80.7095404,     5.0, 2025,  4, 12, 19, 30, 38,        0,        0,   0,   0,   1.4,   0.7,   1.2,  0,  0,  0, 26, 40, 25,  0,  0,  0,  0, 39, 42,  0, 32,  0,  0, 38,  0, 27, 36,  0, 31,  0, 28, 34,  0,  0,  0,  0,  0,  0,  0
6, 11076, 1,Zephyr ,    -0.06, 3,   boost,   83.85, 101502.00,  -14.72,   -0.33,    1.41, 33.2, 4.11, 4.10, 4.11,  59.95,  -4.17,  -2.23,  -8.93,   2.24,   0.67,   0.23,   0.31,  -0.11,   2.64, 4.10, 4.11, 0.00, 0.00, 0.00, 1, 1, 12,  27.9333769, -80.7095404,     5.0, 2025,  4, 12, 19, 30, 38,        0,        0,   0,   0,   1.4,   0.7,   1.2,  0,  0,  0, 26, 40, 25,  0,  0,  0,  0, 39, 42,  0, 32,  0,  0, 38,  0, 27, 36,  0, 31,  0, 28, 34,  0,  0,  0,  0,  0,  0,  0
6, 11076, 1,Zephyr ,    -0.05, 3,   boost,  100.03, 101535.00,  -17.47,   -3.08,    2.23, 33.2, 4.11, 4.10, 4.11,  92.71,   7.46,  -1.49,  -3.99,  -0.20,   8.24,   0.23,   0.31,  -0.11,   2.64, 4.10, 4.11, 0.00, 0.00, 0.00, 1, 1, 12,  27.9333769, -80.7095404,     5.0, 2025,  4, 12, 19, 30, 38,        0,        0,   0,   0,   1.4,   0.7,   1.2,  0,  0,  0, 26, 40, 25,  0,  0,  0,  0, 39, 42,  0, 32,  0,  0, 38,  0, 27, 36,  0, 31,  0, 28, 34,  0,  0,  0,  0,  0,  0,  0
6, 11076, 1,Zephyr ,    -0.04, 3,   boost,  119.64, 101535.00,  -17.47,   -3.08,    3.23, 33.2, 4.11, 4.10, 4.11, 107.57,  -4.30,  -5.92,  -1.92,   5.47,  11.35,   0.23,   0.31,  -0.12,   2.64, 4.10, 4.11, 0.00, 0.00, 0.00, 1, 1, 12,  27.9333769, -80.7095404,     5.0, 2025,  4, 12, 19, 30, 38,        0,        0,   0,   0,   1.4,   0.7,   1.2,  0,  0,  0, 26, 40, 25,  0,  0,  0,  0, 39, 42,  0, 32,  0,  0, 38,  0, 27, 36,  0, 31,  0, 28, 34,  0,  0,  0,  0,  0,  0,  0
6, 11076, 1,Zephyr ,    -0.03, 3,   boost,  124.54, 101498.00,  -14.39,    0.00,    4.37, 33.2, 4.11, 4.10, 4.11, 126.64, -10.66,  -5.13,  18.59,   2.54,   4.52,   0.23,   0.31,  -0.11,   2.64, 4.10, 4.11, 0.00, 0.00, 0.00, 1, 1, 12,  27.9333769, -80.7095404,     5.0, 2025,  4, 12, 19, 30, 38,        0,        0,   0,   0,   1.4,   0.7,   1.2,  0,  0,  0, 26, 40, 25,  0,  0,  0,  0, 39, 42,  0, 32,  0,  0, 38,  0, 27, 36,  0, 31,  0, 28, 34,  0,  0,  0,  0,  0,  0,  0
6, 11076, 1,Zephyr ,    -0.02, 3,   boost,  128.96, 101498.00,  -14.39,    0.00,    5.62, 33.2, 4.11, 4.10, 4.11, 131.06,   3.42,   7.02,   2.42,   4.31,   5.01,   0.23,   0.31,  -0.11,   2.64, 4.10, 4.11, 0.00, 0.00, 0.00, 1, 1, 12,  27.9333769, -80.7095404,     5.0, 2025,  4, 12, 19, 30, 38,        0,        0,   0,   0,   1.4,   0.7,   1.2,  0,  0,  0, 26, 40, 25,  0,  0,  0,  0, 39, 42,  0, 32,  0,  0, 38,  0, 27, 36,  0, 31,  0, 28, 34,  0,  0,  0,  0,  0,  0,  0
6, 11076, 1,Zephyr ,    -0.01, 3,   boost,  135.33, 101479.00,  -12.81,    1.58,    6.93, 33.2, 4.11, 4.10, 4.11, 135.09, -20.09, -13.78,   7.00,   7.49,  -5.92,   0.23,   0.31,  -0.11,   2.64, 4.10, 4.11, 0.00, 0.00, 0.00, 1, 1, 12,  27.9333769, -80.7095404,     5.0, 2025,  4, 12, 19, 30, 38,        0,        0,   0,   0,   1.4,   0.7,   1.2,  0,  0,  0, 26, 40, 25,  0,  0,  0,  0, 39, 42,  0, 32,  0,  0, 38,  0, 27, 36,  0, 31,  0, 28, 34,  0,  0,  0,  0,  0,  0,  0
6, 11076, 1,Zephyr ,     0.00, 3,   boost,  140.73, 101479.00,  -12.81,    1.58,    8.30, 33.2, 4.11, 4.10, 4.11, 142.89,   2.68,  12.92,  19.63,   5.35, -14.22,   0.26,   0.34,  -0.11,   2.64, 4.10, 4.11, 0.00, 0.00, 0.00, 1, 1, 12,  27.9333769, -80.7095404,     5.0, 2025,  4, 12, 19, 30, 38,        0,        0,   0,   0,   1.4,   0.7,   1.2,  0,  0,  0, 26, 40, 25,  0,  0,  0,  0, 39, 42,  0, 32,  0,  0, 38,  0, 27, 36,  0, 31,  0, 28, 34,  0,  0,  0,  0,  0,  0,  0
6, 11076, 1,Zephyr ,     0.00, 3,   boost,  140.73, 101479.00,  -12.81,    1.58,    8.30, 33.2, 4.11, 4.10, 4.11, 142.89,   2.68,  12.92,  19.63,   5.35, -14.22,   0.26,   0.34,  -0.11,   2.64, 4.10, 4.11, 0.00, 0.00, 0.00, 1, 1, 12,  27.9333769, -80.7095404,     5.0, 2025,  4, 12, 19, 30, 38,        0,        0,   0,   0,   1.4,   0.7,   1.2,  0,  0,  0, 26, 40, 25,  0,  0,  0,  0, 39, 42,  0, 32,  0,  0, 38,  0, 27, 36,  0, 31,  0, 28, 34,  0,  0,  0,  0,  0,  0,  0
6, 11076, 1,Zephyr ,     0.00, 3,   boost,  140.73, 101479.00,  -12.81,    1.58,    8.30, 33.2, 4.11, 4.10, 4.11, 142.89,   2.68,  12.92,  19.63,   5.35, -14.22,   0.26,   0.34,  -0.11,   2.64, 4.10, 4.11, 0.00, 0.00, 0.00, 1, 1, 12,  27.9333769, -80.7095404,     5.0, 2025,  4, 12, 19, 30, 38,        0,        0,   0,   0,   1.4,   0.7,   1.2,  0,  0,  0, 26, 40, 25,  0,  0,  0,  0, 39, 42,  0, 32,  0,  0, 38,  0, 27, 36,  0, 31,  0, 28, 34,  0,  0,  0,  0,  0,  0,  0
6, 11076, 1,Zephyr ,     0.00, 3,   boost,  140.73, 101479.00,  -12.81,    1.58,    8.30, 33.2, 4.11, 4.10, 4.11, 142.89,   2.68,  12.92,  19.63,   5.35, -14.22,   0.26,   0.34,  -0.11,   2.64, 4.10, 4.11, 0.00, 0.00, 0.00, 1, 1, 12,  27.9333769, -80.7095404,     5.0, 2025,  4, 12, 19, 30, 38,        0,        0,   0,   0,   1.4,   0.7,   1.2,  0,  0,  0, 26, 40, 25,  0,  0,  0,  0, 39, 42,  0, 32,  0,  0, 38,  0, 27, 36,  0, 31,  0, 28, 34,  0,  0,  0,  0,  0,  0,  0
6, 11076, 1,Zephyr ,     0.00, 3,   boost,  140.73, 101479.00,  -12.81,    1.58,    8.30, 33.2, 4.11, 4.10, 4.11, 142.89,   2.68,  12.92,  19.63,   5.35, -14.22,   0.26,   0.34,  -0.11,   2.64, 4.10, 4.11, 0.00, 0.00, 0.00, 1, 1, 12,  27.9333769, -80.7095404,     5.0, 2025,  4, 12, 19, 30, 38,        0,        0,   0,   0,   1.4,   0.7,   1.2,  0,  0,  0, 26, 40, 25,  0,  0,  0,  0, 39, 42,  0, 32,  0,  0, 38,  0, 27, 36,  0, 31,  0, 28, 34,  0,  0,  0,  0,  0,  0,  0
6, 11076, 1,Zephyr ,     0.00, 3,   boost,  140.73, 101479.00,  -12.81,    1.58,    8.30, 33.2, 4.11, 4.10, 4.11, 142.89,   2.68,  12.92,  19.63,   5.35, -14.22,   0.26,   0.34,  -0.11,   2.63, 4.10, 4.11, 0.00, 0.00, 0.00, 1, 1, 12,  27.9333769, -80.7095404,     5.0, 2025,  4, 12, 19, 30, 38,        0,        0,   0,   0,   1.4,   0.7,   1.2,  0,  0,  0, 26, 40, 25,  0,  0,  0,  0, 39, 42,  0, 32,  0,  0, 38,  0, 27, 36,  0, 31,  0, 28, 34,  0,  0,  0,  0,  0,  0,  0
6, 11076, 1,Zephyr ,     0.00, 3,   boost,  140.73, 101479.00,  -12.81,    1.58,    8.30, 33.2, 4.11, 4.10, 4.11, 142.89,   2.68,  12.92,  19.63,   5.35, -14.22,   0.26,   0.34,  -0.11,   2.62, 4.10, 4.11, 0.00, 0.00, 0.00, 1, 1, 12,  27.9333769, -80.7095404,     5.0, 2025,  4, 12, 19, 30, 38,        0,        0,   0,   0,   1.4,   0.7,   1.2,  0,  0,  0, 26, 40, 25,  0,  0,  0,  0, 39, 42,  0, 32,  0,  0, 38,  0, 27, 36,  0, 31,  0, 28, 34,  0,  0,  0,  0,  0,  0,  0
6, 11076, 1,Zephyr ,     0.00, 3,   boost,  140.73, 101479.00,  -12.81,    1.58,    8.30, 33.2, 4.11, 4.10, 4.11, 142.89,   2.68,  12.92,  19.63,   5.35, -14.22,   0.26,   0.34,  -0.11,   2.62, 4.10, 4.11, 0.00, 0.00, 0.00, 1, 1, 12,  27.9333769, -80.7095404,     5.0, 2025,  4, 12, 19, 30, 38,        0,        0,   0,   0,   1.4,   0.7,   1.2,  0,  0,  0, 26, 40, 25,  0,  0,  0,  0, 39, 42,  0, 32,  0,  0, 38,  0, 27, 36,  0, 31,  0, 28, 34,  0,  0,  0,  0,  0,  0,  0
6, 11076, 1,Zephyr ,     0.00, 3,   boost,  140.73, 101479.00,  -12.81,    1.58,    8.30, 33.2, 4.11, 4.10, 4.11, 142.89,   2.68,  12.92,  19.63,   5.35, -14.22,   0.26,   0.34,  -0.11,   2.61, 4.10, 4.11, 0.00, 0.00, 0.00, 1, 1, 12,  27.9333769, -80.7095404,     5.0, 2025,  4, 12, 19, 30, 38,        0,        0,   0,   0,   1.4,   0.7,   1.2,  0,  0,  0, 26, 40, 25,  0,  0,  0,  0, 39, 42,  0, 32,  0,  0, 38,  0, 27, 36,  0, 31,  0, 28, 34,  0,  0,  0,  0,  0,  0,  0
6, 11076, 1,Zephyr ,     0.00, 3,   boost,  140.73, 101479.00,  -12.81,    1.58,    8.30, 33.2, 4.11, 4.10, 4.11, 142.89,   2.68,  12.92,  19.63,   5.35, -14.22,   0.26,   0.34,  -0.11,   2.61, 4.10, 4.11, 0.00, 0.00, 0.00, 1, 1, 12,  27.9333769, -80.7095404,     5.0, 2025,  4, 12, 19, 30, 38,        0,        0,   0,   0,   1.4,   0.7,   1.2,  0,  0,  0, 26, 40, 25,  0,  0,  0,  0, 39, 42,  0, 32,  0,  0, 38,  0, 27, 36,  0, 31,  0, 28, 34,  0,  0,  0,  0,  0,  0,  0
6, 11076, 1,Zephyr ,     0.00, 3,   boost,  140.73, 101479.00,  -12.81,    1.58,    8.30, 33.2, 4.11, 4.10, 4.11, 142.89,   2.68,  12.92,  19.63,   5.35, -14.22,   0.26,   0.34,  -0.11,   2.60, 4.10, 4.11, 0.00, 0.00, 0.00, 1, 1, 12,  27.9333769, -80.7095404,     5.0, 2025,  4, 12, 19, 30, 38,        0,        0,   0,   0,   1.4,   0.7,   1.2,  0,  0,  0, 26, 40, 25,  0,  0,  0,  0, 39, 42,  0, 32,  0,  0, 38,  0, 27, 36,  0, 31,  0, 28, 34,  0,  0,  0,  0,  0,  0,  0
6, 11076, 1,Zephyr ,     0.00, 3,   boost,  140.73, 101479.00,  -12.81,    1.58,    8.30, 33.2, 4.11, 4.10, 4.11, 142.89,   2.68,  12.92,  19.63,   5.35, -14.22,   0.26,   0.34,  -0.11,   2.60, 4.10, 4.11, 0.00, 0.00, 0.00, 1, 1, 12,  27.9333769, -80.7095404,     5.0, 2025,  4, 12, 19, 30, 38,        0,        0,   0,   0,   1.4,   0.7,   1.2,  0,  0,  0, 26, 40, 25,  0,  0,  0,  0, 39, 42,  0, 32,  0,  0, 38,  0, 27, 36,  0, 31,  0, 28, 34,  0,  0,  0,  0,  0,  0,  0
6, 11076, 1,Zephyr ,     0.00, 3,   boost,  140.73, 101479.00,  -12.81,    1.58,    8.30, 33.2, 4.11, 4.10, 4.11, 142.89,   2.68,  12.92,  19.63,   5.35, -14.22,   0.26,   0.34,  -0.11,   2.59, 4.10, 4.11, 0.00, 0.00, 0.00, 1, 1, 12,  27.9333769, -80.7095404,     5.0, 2025,  4, 12, 19, 30, 38,        0,        0,   0,   0,   1.4,   0.7,   1.2,  0,  0,  0, 26, 40, 25,  0,  0,  0,  0, 39, 42,  0, 32,  0,  0, 38,  0, 27, 36,  0, 31,  0, 28, 34,  0,  0,  0,  0,  0,  0,  0
6, 11076, 1,Zephyr ,     0.00, 3,   boost,  140.73, 101479.00,  -12.81,    1.58,    8.30, 33.2, 4.11, 4.10, 4.11, 142.89,   2.68,  12.92,  19.63,   5.35, -14.22,   0.26,   0.34,  -0.11,   2.58, 4.10, 4.11, 0.00, 0.00, 0.00, 1, 1, 12,  27.9333769, -80.7095404,     5.0, 2025,  4, 12, 19, 30, 38,        0,        0,   0,   0,   1.4,   0.7,   1.2,  0,  0,  0, 26, 40, 25,  0,  0,  0,  0, 39, 42,  0, 32,  0,  0, 38,  0, 27, 36,  0, 31,  0, 28, 34,  0,  0,  0,  0,  0,  0,  0
6, 11076, 1,Zephyr ,     0.00, 3,   boost,  140.73, 101479.00,  -12.81,    1.58,    8.30, 33.2, 4.11, 4.10, 4.11, 142.89,   2.68,  12.92,  19.63,   5.35, -14.22,   0.26,   0.34,  -0.11,   2.58, 4.10, 4.11, 0.00, 0.00, 0.00, 1, 1, 12,  27.9333769, -80.7095404,     5.0, 2025,  4, 12, 19, 30, 38,        0,        0,   0,   0,   1.4,   0.7,   1.2,  0,  0,  0, 26, 40, 25,  0,  0,  0,  0, 39, 42,  0, 32,  0,  0, 38,  0, 27, 36,  0, 31,  0, 28, 34,  0,  0,  0,  0,  0,  0,  0
6, 11076, 1,Zephyr ,     0.00, 3,   boost,  140.73, 101479.00,  -12.81,    1.58,    8.30, 33.2, 4.11, 4.10, 4.11, 142.89,   2.68,  12.92,  19.63,   5.35, -14.22,   0.26,   0.34,  -0.11,   2.57, 4.10, 4.11, 0.00, 0.00, 0.00, 1, 1, 12,  27.9333769, -80.7095404,     5.0, 2025,  4, 12, 19, 30, 38,        0,        0,   0,   0,   1.4,   0.7,   1.2,  0,  0,  0, 26, 40, 25,  0,  0,  0,  0, 39, 42,  0, 32,  0,  0, 38,  0, 27, 36,  0, 31,  0, 28, 34,  0,  0,  0,  0,  0,  0,  0
6, 11076, 1,Zephyr ,     0.00, 3,   boost,  140.73, 101479.00,  -12.81,    1.58,    8.30, 33.2, 4.11, 4.10, 4.11, 142.89,   2.68,  12.92,  19.63,   5.35, -14.22,   0.26,   0.34,  -0.11,   2.56, 4.10, 4.11, 0.00, 0.00, 0.00, 1, 1, 12,  27.9333769, -80.7095404,     5.0, 2025,  4, 12, 19, 30, 38,        0,        0,   0,   0,   1.4,   0.7,   1.2,  0,  0,  0, 26, 40, 25,  0,  0,  0,  0, 39, 42,  0, 32,  0,  0, 38,  0, 27, 36,  0, 31,  0, 28, 34,  0,  0,  0,  0,  0,  0,  0
6, 11076, 1,Zephyr ,     0.00, 3,   boost,  140.73, 101479.00,  -12.81,    1.58,    8.30, 33.2, 4.11, 4.10, 4.11, 142.89,   2.68,  12.92,  19.63,   5.35, -14.22,   0.26,   0.34,  -0.11,   2.56, 4.10, 4.11, 0.00, 0.00, 0.00, 1, 1, 12,  27.9333769, -80.7095404,     5.0, 2025,  4, 12, 19, 30, 38,        0,        0,   0,   0,   1.4,   0.7,   1.2,  0,  0,  0, 26, 40, 25,  0,  0,  0,  0, 39, 42,  0, 32,  0,  0, 38,  0, 27, 36,  0, 31,  0, 28, 34,  0,  0,  0,  0,  0,  0,  0
6, 11076, 1,Zephyr ,     0.00, 3,   boost,  140.73, 101479.00,  -12.81,    1.58,    8.30, 33.2, 4.11, 4.10, 4.11, 142.89,   2.68,  12.92,  19.63,   5.35, -14.22,   0.26,   0.34,  -0.11,   2.55, 4.10, 4.11, 0.00, 0.00, 0.00, 1, 1, 12,  27.9333769, -80.7095404,     5.0, 2025,  4, 12, 19, 30, 38,        0,        0,   0,   0,   1.4,   0.7,   1.2,  0,  0,  0, 26, 40, 25,  0,  0,  0,  0, 39, 42,  0, 32,  0,  0, 38,  0, 27, 36,  0, 31,  0, 28, 34,  0,  0,  0,  0,  0,  0,  0
6, 11076, 1,Zephyr ,     0.00, 3,   boost,  140.73, 101479.00,  -12.81,    1.58,    8.30, 33.2, 4.11, 4.10, 4.11, 142.89,   2.68,  12.92,  19.63,   5.35, -14.22,   0.26,   0.34,  -0.11,   2.54, 4.10, 4.11, 0.00, 0.00, 0.00, 1, 1, 12,  27.9333769, -80.7095404,     5.0, 2025,  4, 12, 19, 30, 38,        0,        0,   0,   0,   1.4,   0.7,   1.2,  0,  0,  0, 26, 40, 25,  0,  0,  0,  0, 39, 42,  0, 32,  0,  0, 38,  0, 27, 36,  0, 31,  0, 28, 34,  0,  0,  0,  0,  0,  0,  0
6, 11076, 1,Zephyr ,     0.00, 3,   boost,  140.73, 101479.00,  -12.81,    1.58,    8.30, 33.2, 4.11, 4.10, 4.11, 142.89,   2.68,  12.92,  19.63,   5.35, -14.22,   0.26,   0.34,  -0.11,   2.53, 4.10, 4.11, 0.00, 0.00, 0.00, 1, 1, 12,  27.9333769, -80.7095404,     5.0, 2025,  4, 12, 19, 30, 38,        0,        0,   0,   0,   1.4,   0.7,   1.2,  0,  0,  0, 26, 40, 25,  0,  0,  0,  0, 39, 42,  0, 32,  0,  0, 38,  0, 27, 36,  0, 31,  0, 28, 34,  0,  0,  0,  0,  0,  0,  0
6, 11076, 1,Zephyr ,     0.00, 3,   boost,  140.73, 101479.00,  -12.81,    1.58,    8.30, 33.2, 4.11, 4.10, 4.11, 142.89,   2.68,  12.92,  19.63,   5.35, -14.22,   0.26,   0.34,  -0.11,   2.53, 4.10, 4.11, 0.00, 0.00, 0.00, 1, 1, 12,  27.9333769, -80.7095404,     5.0, 2025,  4, 12, 19, 30, 38,        0,        0,   0,   0,   1.4,   0.7,   1.2,  0,  0,  0, 26, 40, 25,  0,  0,  0,  0, 39, 42,  0, 32,  0,  0, 38,  0, 27, 36,  0, 31,  0, 28, 34,  0,  0,  0,  0,  0,  0,  0
6, 11076, 1,Zephyr ,     0.00, 3,   boost,  140.73, 101479.00,  -12.81,    1.58,    8.30, 33.2, 4.11, 4.10, 4.11, 142.89,   2.68,  12.92,  19.63,   5.35, -14.22,   0.26,   0.34,  -0.11,   2.52, 4.10, 4.11, 0.00, 0.00, 0.00, 1, 1, 12,  27.9333769, -80.7095404,     5.0, 2025,  4, 12, 19, 30, 38,        0,        0,   0,   0,   1.4,   0.7,   1.2,  0,  0,  0, 26, 40, 25,  0,  0,  0,  0, 39, 42,  0, 32,  0,  0, 38,  0, 27, 36,  0, 31,  0, 28, 34,  0,  0,  0,  0,  0,  0,  0
6, 11076, 1,Zephyr ,     0.00, 3,   boost,  140.73, 101479.00,  -12.81,    1.58,    8.30, 33.2, 4.11, 4.10, 4.11, 142.89,   2.68,  12.92,  19.63,   5.35, -14.22,   0.26,   0.34,  -0.11,   2.51, 4.10, 4.11, 0.00, 0.00, 0.00, 1, 1, 12,  27.9333769, -80.7095404,     5.0, 2025,  4, 12, 19, 30, 38,        0,        0,   0,   0,   1.4,   0.7,   1.2,  0,  0,  0, 26, 40, 25,  0,  0,  0,  0, 39, 42,  0, 32,  0,  0, 38,  0, 27, 36,  0, 31,  0, 28, 34,  0,  0,  0,  0,  0,  0,  0
6, 11076, 1,Zephyr ,     0.00, 3,   boost,  140.73, 101479.00,  -12.81,    1.58,    8.30, 33.2, 4.11, 4.10, 4.11, 142.89,   2.68,  12.92,  19.63,   5.35, -14.22,   0.26,   0.34,  -0.11,   2.50, 4.10, 4.11, 0.00, 0.00, 0.00, 1, 1, 12,  27.9333769, -80.7095404,     5.0, 2025,  4, 12, 19, 30, 38,        0,        0,   0,   0,   1.4,   0.7,   1.2,  0,  0,  0, 26, 40, 25,  0,  0,  0,  0, 39, 42,  0, 32,  0,  0, 38,  0, 27, 36,  0, 31,  0, 28, 34,  0,  0,  0,  0,  0,  0,  0
6, 11076, 1,Zephyr ,     0.00, 3,   boost,  140.73, 101479.00,  -12.81,    1.58,    8.30, 33.2, 4.11, 4.10, 4.11, 142.89,   2.68,  12.92,  19.63,   5.35, -14.22,   0.26,   0.34,  -0.11,   2.49, 4.10, 4.11, 0.00, 0.00, 0.00, 1, 1, 12,  27.9333769, -80.7095404,     5.0, 2025,  4, 12, 19, 30, 38,        0,        0,   0,   0,   1.4,   0.7,   1.2,  0,  0,  0, 26, 40, 25,  0,  0,  0,  0, 39, 42,  0, 32,  0,  0, 38,  0, 27, 36,  0, 31,  0, 28, 34,  0,  0,  0,  0,  0,  0,  0
6, 11076, 1,Zephyr ,     0.00, 3,   boost,  140.73, 101479.00,  -12.81,    1.58,    8.30, 33.2, 4.11, 4.10, 4.11, 142.89,   2.68,  12.92,  19.63,   5.35, -14.22,   0.26,   0.34,  -0.11,   2.49, 4.10, 4.11, 0.00, 0.00, 0.00, 1, 1, 12,  27.9333769, -80.7095404,     5.0, 2025,  4, 12, 19, 30, 38,        0,        0,   0,   0,   1.4,   0.7,   1.2,  0,  0,  0, 26, 40, 25,  0,  0,  0,  0, 39, 42,  0, 32,  0,  0, 38,  0, 27, 36,  0, 31,  0, 28, 34,  0,  0,  0,  0,  0,  0,  0
6, 11076, 1,Zephyr ,     0.00, 3,   boost,  140.73, 101479.00,  -12.81,    1.58,    8.30, 33.2, 4.11, 4.10, 4.11, 142.89,   2.68,  12.92,  19.63,   5.35, -14.22,   0.26,   0.34,  -0.11,   2.48, 4.10, 4.11, 0.00, 0.00, 0.00, 1, 1, 12,  27.9333769, -80.7095404,     5.0, 2025,  4, 12, 19, 30, 38,        0,        0,   0,   0,   1.4,   0.7,   1.2,  0,  0,  0, 26, 40, 25,  0,  0,  0,  0, 39, 42,  0, 32,  0,  0, 38,  0, 27, 36,  0, 31,  0, 28, 34,  0,  0,  0,  0,  0,  0,  0
6, 11076, 1,Zephyr ,     0.00, 3,   boost,  140.73, 101479.00,  -12.81,    1.58,    8.30, 33.2, 4.11, 4.10, 4.11, 142.89,   2.68,  12.92,  19.63,   5.35, -14.22,   0.26,   0.34,  -0.11,   2.47, 4.10, 4.11, 0.00, 0.00, 0.00, 1, 1, 12,  27.9333769, -80.7095404,     5.0, 2025,  4, 12, 19, 30, 38,        0,        0,   0,   0,   1.4,   0.7,   1.2,  0,  0,  0, 26, 40, 25,  0,  0,  0,  0, 39, 42,  0, 32,  0,  0, 38,  0, 27, 36,  0, 31,  0, 28, 34,  0,  0,  0,  0,  0,  0,  0
6, 11076, 1,Zephyr ,     0.00, 3,   boost,  140.73, 101479.00,  -12.81,    1.58,    8.30, 33.2, 4.11, 4.10, 4.11, 142.89,   2.68,  12.92,  19.63,   5.35, -14.22,   0.26,   0.34,  -0.11,   2.39, 4.10, 4.11, 0.00, 0.00, 0.00, 1, 1, 12,  27.9333769, -80.7095404,     5.0, 2025,  4, 12, 19, 30, 38,        0,        0,   0,   0,   1.4,   0.7,   1.2,  0,  0,  0, 26, 40, 25,  0,  0,  0,  0, 39, 42,  0, 32,  0,  0, 38,  0, 27, 36,  0, 31,  0, 28, 34,  0,  0,  0,  0,  0,  0,  0
6, 11076, 1,Zephyr ,     0.00, 3,   boost,  140.73, 101479.00,  -12.81,    1.58,    8.30, 33.2, 4.11, 4.10, 4.11, 142.89,   2.68,  12.92,  19.63,   5.35, -14.22,   0.26,   0.34,  -0.11,   2.28, 4.10, 4.11, 0.00, 0.00, 0.00, 1, 1, 12,  27.9333769, -80.7095404,     5.0, 2025,  4, 12, 19, 30, 38,        0,        0,   0,   0,   1.4,   0.7,   1.2,  0,  0,  0, 26, 40, 25,  0,  0,  0,  0, 39, 42,  0, 32,  0,  0, 38,  0, 27, 36,  0, 31,  0, 28, 34,  0,  0,  0,  0,  0,  0,  0
6, 11076, 1,Zephyr ,     0.00, 3,   boost,  140.73, 101479.00,  -12.81,    1.58,    8.30, 33.2, 4.11, 4.10, 4.11, 142.89,   2.68,  12.92,  19.63,   5.35, -14.22,   0.26,   0.34,  -0.11,   2.23, 4.10, 4.11, 0.00, 0.00, 0.00, 1, 1, 12,  27.9333769, -80.7095404,     5.0, 2025,  4, 12, 19, 30, 38,        0,        0,   0,   0,   1.4,   0.7,   1.2,  0,  0,  0, 26, 40, 25,  0,  0,  0,  0, 39, 42,  0, 32,  0,  0, 38,  0, 27, 36,  0, 31,  0, 28, 34,  0,  0,  0,  0,  0,  0,  0
6, 11076, 1,Zephyr ,     0.00, 3,   boost,  140.73, 101479.00,  -12.81,    1.58,    8.30, 33.2, 4.11, 4.10, 4.11, 142.89,   2.68,  12.92,  19.63,   5.35, -14.22,   0.26,   0.34,  -0.11,   2.18, 4.10, 4.11, 0.00, 0.00, 0.00, 1, 1, 12,  27.9333769, -80.7095404,     5.0, 2025,  4, 12, 19, 30, 38,        0,        0,   0,   0,   1.4,   0.7,   1.2,  0,  0,  0, 26, 40, 25,  0,  0,  0,  0, 39, 42,  0, 32,  0,  0, 38,  0, 27, 36,  0, 31,  0, 28, 34,  0,  0,  0,  0,  0,  0,  0
6, 11076, 1,Zephyr ,     0.00, 3,   boost,  140.73, 101479.00,  -12.81,    1.58,    8.30, 33.2, 4.11, 4.10, 4.11, 142.89,   2.68,  12.92,  19.63,   5.35, -14.22,   0.26,   0.34,  -0.11,   2.25, 4.10, 4.11, 0.00, 0.00, 0.00, 1, 1, 12,  27.9333769, -80.7095404,     5.0, 2025,  4, 12, 19, 30, 38,        0,        0,   0,   0,   1.4,   0.7,   1.2,  0,  0,  0, 26, 40, 25,  0,  0,  0,  0, 39, 42,  0, 32,  0,  0, 38,  0, 27, 36,  0, 31,  0, 28, 34,  0,  0,  0,  0,  0,  0,  0
6, 11076, 1,Zephyr ,     0.00, 3,   boost,  140.73, 101479.00,  -12.81,    1.58,    8.30, 33.2, 4.11, 4.10, 4.11, 142.89,   2.68,  12.92,  19.63,   5.35, -14.22,   0.26,   0.34,  -0.11,   2.39, 4.10, 4.11, 0.00, 0.00, 0.00, 1, 1, 12,  27.9333769, -80.7095404,     5.0, 2025,  4, 12, 19, 30, 38,        0,        0,   0,   0,   1.4,   0.7,   1.2,  0,  0,  0, 26, 40, 25,  0,  0,  0,  0, 39, 42,  0, 32,  0,  0, 38,  0, 27, 36,  0, 31,  0, 28, 34,  0,  0,  0,  0,  0,  0,  0
6, 11076, 1,Zephyr ,     0.01, 3,   boost,  148.08, 101480.00,  -12.89,    1.50,    9.70, 33.2, 4.11, 4.10, 4.11, 149.89,  -4.86,  -2.24,  39.10,   1.51, -20.02,   0.26,   0.34,  -0.11,   2.59, 4.10, 4.11, 0.00, 0.00, 0.00, 1, 1, 12,  27.9333769, -80.7095404,     5.0, 2025,  4, 12, 19, 30, 38,        0,        0,   0,   0,   1.4,   0.7,   1.2,  0,  0,  0, 26, 40, 25,  0,  0,  0,  0, 39, 42,  0, 32,  0,  0, 38,  0, 27, 36,  0, 31,  0, 28, 34,  0,  0,  0,  0,  0,  0,  0
6, 11076, 1,Zephyr ,     0.01, 3,   boost,  148.08, 101480.00,  -12.89,    1.50,    9.70, 33.2, 4.11, 4.10, 4.11, 149.89,  -4.86,  -2.24,  39.10,   1.51, -20.02,   0.26,   0.34,  -0.11,   2.59, 4.10, 4.11, 0.00, 0.00, 0.00, 1, 1, 12,  27.9333769, -80.7095404,     5.0, 2025,  4, 12, 19, 30, 38,        0,        0,   0,   0,   1.4,   0.7,   1.2,  0,  0,  0, 26, 40, 25,  0,  0,  0,  0, 39, 42,  0, 32,  0,  0, 38,  0, 27, 36,  0, 31,  0, 28, 34,  0,  0,  0,  0,  0,  0,  0
6, 11076, 1,Zephyr ,     0.02, 3,   boost,  149.06, 101480.00,  -12.89,    1.50,   11.12, 33.2, 4.11, 4.10, 4.10, 153.20,   3.56,  -9.33,  61.01,   3.34, -22.09,   0.20,   0.34,  -0.13,   2.82, 4.11, 4.10, 0.00, 0.00, 0.00, 1, 1, 12,  27.9333769, -80.7095404,     5.0, 2025,  4, 12, 19, 30, 38,        0,        0,   0,   0,   1.4,   0.7,   1.2,  0,  0,  0, 26, 40, 25,  0,  0,  0,  0, 39, 42,  0, 32,  0,  0, 38,  0, 27, 36,  0, 31,  0, 28, 34,  0,  0,  0,  0,  0,  0,  0
6, 11076, 1,Zephyr ,     0.02, 3,   boost,  149.06, 101480.00,  -12.89,    1.50,   11.12, 33.2, 4.11, 4.10, 4.10, 153.20,   3.56,  -9.33,  61.01,   3.34, -22.09,   0.20,   0.34,  -0.13,   2.82, 4.11, 4.10, 0.00, 0.00, 0.00, 1, 1, 12,  27.9333769, -80.7095404,     5.0, 2025,  4, 12, 19, 30, 38,        0,        0,   0,   0,   1.4,   0.7,   1.2,  0,  0,  0, 26, 40, 25,  0,  0,  0,  0, 39, 42,  0, 32,  0,  0, 38,  0, 27, 36,  0, 31,  0, 28, 34,  0,  0,  0,  0,  0,  0,  0
6, 11076, 1,Zephyr ,     0.03, 3,   boost,  134.84, 101487.00,  -13.48,    0.91,   12.55, 33.2, 4.11, 4.10, 4.10, 154.59,   3.01,  -0.68,  49.54,  -6.00, -14.65,   0.22,   0.31,  -0.12,   2.96, 4.11, 4.10, 0.00, 0.00, 0.00, 1, 1, 12,  27.9333769, -80.7095404,     5.0, 2025,  4, 12, 19, 30, 38,        0,        0,   0,   0,   1.4,   0.7,   1.2,  0,  0,  0, 26, 40, 25,  0,  0,  0,  0, 39, 42,  0, 32,  0,  0, 38,  0, 27, 36,  0, 31,  0, 28, 34,  0,  0,  0,  0,  0,  0,  0
6, 11076, 1,Zephyr ,     0.04, 3,   boost,  142.20, 101487.00,  -13.48,    0.91,   14.00, 33.2, 4.11, 4.10, 4.10, 146.73,   8.20,   4.37,  11.21,   4.19, -11.60,   0.22,   0.31,  -0.12,   3.08, 4.11, 4.10, 0.00, 0.00, 0.00, 1, 1, 12,  27.9333769, -80.7095404,     5.0, 2025,  4, 12, 19, 30, 38,        0,        0,   0,   0,   1.4,   0.7,   1.2,  0,  0,  0, 26, 40, 25,  0,  0,  0,  0, 39, 42,  0, 32,  0,  0, 38,  0, 27, 36,  0, 31,  0, 28, 34,  0,  0,  0,  0,  0,  0,  0
6, 11076, 1,Zephyr ,     0.05, 3,   boost,  149.55, 101485.00,  -13.31,    1.08,   15.46, 33.2, 4.11, 4.10, 4.10, 162.81, -13.28, -24.07, -12.23,   5.35,  -8.73,   0.22,   0.31,  -0.12,   3.17, 4.11, 4.10, 0.00, 0.00, 0.00, 1, 1, 12,  27.9333769, -80.7095404,     5.0, 2025,  4, 12, 19, 30, 38,        0,        0,   0,   0,   1.4,   0.7,   1.2,  0,  0,  0, 26, 40, 25,  0,  0,  0,  0, 39, 42,  0, 32,  0,  0, 38,  0, 27, 36,  0, 31,  0, 28, 34,  0,  0,  0,  0,  0,  0,  0
6, 11076, 1,Zephyr ,     0.06, 3,   boost,  150.53, 101485.00,  -13.31,    1.08,   16.95, 33.2, 4.11, 4.10, 4.10, 157.23,   6.73,   2.82, -37.50,  -0.81,  -3.11,   0.22,   0.31,  -0.12,   3.20, 4.11, 4.10, 0.00, 0.00, 0.00, 1, 1, 12,  27.9333769, -80.7095404,     5.0, 2025,  4, 12, 19, 30, 38,        0,        0,   0,   0,   1.4,   0.7,   1.2,  0,  0,  0, 26, 40, 25,  0,  0,  0,  0, 39, 42,  0, 32,  0,  0, 38,  0, 27, 36,  0, 31,  0, 28, 34,  0,  0,  0,  0,  0,  0,  0
6, 11076, 1,Zephyr ,     0.07, 3,   boost,  154.45, 101494.00,  -14.06,    0.33,   18.45, 33.2, 4.11, 4.10, 4.10, 158.55, -12.60,  -0.73, -59.53,   0.77,  -4.33,   0.22,   0.31,  -0.12,   3.24, 4.11, 4.10, 0.00, 0.00, 0.00, 1, 1, 12,  27.9333769, -80.7095404,     5.0, 2025,  4, 12, 19, 30, 38,        0,        0,   0,   0,   1.4,   0.7,   1.2,  0,  0,  0, 26, 40, 25,  0,  0,  0,  0, 39, 42,  0, 32,  0,  0, 38,  0, 27, 36,  0, 31,  0, 28, 34,  0,  0,  0,  0,  0,  0,  0
6, 11076, 1,Zephyr ,     0.08, 3,   boost,  152.00, 101494.00,  -14.06,    0.33,   19.99, 33.2, 4.11, 4.10, 4.10, 159.88, -12.76,  -8.93, -63.99,  -9.36,   0.79,   0.22,   0.31,  -0.11,   3.23, 4.11, 4.10, 0.00, 0.00, 0.00, 1, 1, 12,  27.9333769, -80.7095404,     5.0, 2025,  4, 12, 19, 30, 38,        0,        0,   0,   0,   1.4,   0.7,   1.2,  0,  0,  0, 26, 40, 25,  0,  0,  0,  0, 39, 42,  0, 32,  0,  0, 38,  0, 27, 36,  0, 31,  0, 28, 34,  0,  0,  0,  0,  0,  0,  0
6, 11076, 1,Zephyr ,     0.09, 3,   boost,  161.81, 101485.00,  -13.31,    1.08,   21.53, 33.2, 4.11, 4.10, 4.10, 160.88,   4.91,  -3.06, -18.27, -14.91,   5.74,   0.22,   0.31,  -0.11,   3.16, 4.11, 4.10, 0.00, 0.00, 0.00, 1, 1, 12,  27.9333769, -80.7095404,     5.0, 2025,  4, 12, 19, 30, 38,        0,        0,   0,   0,   1.4,   0.7,   1.2,  0,  0,  0, 26, 40, 25,  0,  0,  0,  0, 39, 42,  0, 32,  0,  0, 38,  0, 27, 36,  0, 31,  0, 28, 34,  0,  0,  0,  0,  0,  0,  0
6, 11076, 1,Zephyr ,     0.10, 3,   boost,  152.00, 101485.00,  -13.31,    1.08,   23.09, 33.2, 4.11, 4.10, 4.10, 162.22,  -6.73,  -6.65,   3.82, -19.55,  13.24,   0.22,   0.31,  -0.11,   3.03, 4.11, 4.10, 0.00, 0.00, 0.00, 1, 1, 12,  27.9333769, -80.7095404,     5.0, 2025,  4, 12, 19, 30, 38,        0,        0,   0,   0,   1.4,   0.7,   1.2,  0,  0,  0, 26, 40, 25,  0,  0,  0,  0, 39, 42,  0, 32,  0,  0, 38,  0, 27, 36,  0, 31,  0, 28, 34,  0,  0,  0,  0,  0,  0,  0
6, 11076, 1,Zephyr ,     0.11, 3,   boost,  158.87, 101494.00,  -14.06,    0.33,   24.66, 33.2, 4.11, 4.10, 4.10, 167.07, -11.94,  -0.29,  26.34, -20.65,  15.38,   0.23,   0.31,  -0.11,   2.90, 4.11, 4.10, 0.00, 0.00, 0.00, 1, 1, 12,  27.9333769, -80.7095404,     5.0, 2025,  4, 12, 19, 30, 38,        0,        0,   0,   0,   1.4,   0.7,   1.2,  0,  0,  0, 26, 40, 25,  0,  0,  0,  0, 39, 42,  0, 32,  0,  0, 38,  0, 27, 36,  0, 31,  0, 28, 34,  0,  0,  0,  0,  0,  0,  0
6, 11076, 1,Zephyr ,     0.12, 3,   boost,  157.40, 101494.00,  -14.06,    0.33,   26.23, 33.2, 4.11, 4.10, 4.10, 166.70,   5.90,  -9.05,  12.49, -22.18,  17.88,   0.23,   0.31,  -0.11,   2.76, 4.11, 4.10, 0.00, 0.00, 0.00, 1, 1, 12,  27.9333769, -80.7095404,     5.0, 2025,  4, 12, 19, 30, 38,        0,        0,   0,   0,   1.4,   0.7,   1.2,  0,  0,  0, 26, 40, 25,  0,  0,  0,  0, 39, 42,  0, 32,  0,  0, 38,  0, 27, 36,  0, 31,  0, 28, 34,  0,  0,  0,  0,  0,  0,  0
6, 11076, 1,Zephyr ,     0.13, 3,   boost,  157.89, 101481.00,  -12.98,    1.41,   27.82, 33.2, 4.11, 4.10, 4.10, 167.96, -11.70, -13.66,  46.18, -17.96,  16.24,   0.23,   0.31,  -0.11,   2.64, 4.11, 4.10, 0.00, 0.00, 0.00, 1, 1, 12,  27.9333769, -80.7095404,     5.0, 2025,  4, 12, 19, 30, 38,        0,        0,   0,   0,   1.4,   0.7,   1.2,  0,  0,  0, 26, 40, 25,  0,  0,  0,  0, 39, 42,  0, 32,  0,  0, 38,  0, 27, 36,  0, 31,  0, 28, 34,  0,  0,  0,  0,  0,  0,  0
6, 11076, 1,Zephyr ,     0.14, 3,   boost,  161.32, 101481.00,  -12.98,    1.41,   29.42, 33.2, 4.11, 4.10, 4.10, 168.41, -10.65,  -0.93,  53.63, -11.07,   6.65,   0.23,   0.30,  -0.12,   2.61, 4.11, 4.10, 0.00, 0.00, 0.00, 1, 1, 12,  27.9333769, -80.7095404,     5.0, 2025,  4, 12, 19, 30, 38,        0,        0,   0,   0,   1.4,   0.7,   1.2,  0,  0,  0, 26, 40, 25,  0,  0,  0,  0, 39, 42,  0, 32,  0,  0, 38,  0, 27, 36,  0, 31,  0, 28, 34,  0,  0,  0,  0,  0,  0,  0
6, 11076, 1,Zephyr ,     0.15, 3,   boost,  163.77, 101459.00,  -11.15,    3.24,   31.05, 33.2, 4.11, 4.10, 4.10, 170.71,  -9.09,  -8.78,  72.43,  -5.70,  -3.36,   0.23,   0.30,  -0.12,   2.66, 4.11, 4.10, 0.00, 0.00, 0.00, 1, 1, 12,  27.9333769, -80.7095404,     5.0, 2025,  4, 12, 19, 30, 38,        0,        0,   0,   0,   1.4,   0.7,   1.2,  0,  0,  0, 26, 40, 25,  0,  0,  0,  0, 39, 42,  0, 32,  0,  0, 38,  0, 27, 36,  0, 31,  0, 28, 34,  0,  0,  0,  0,  0,  0,  0
6, 11076, 1,Zephyr ,     0.16, 3,   boost,  166.71, 101459.00,  -11.15,    3.24,   32.69, 33.2, 4.11, 4.10, 4.10, 171.95,   7.16,   4.49,  83.96, -10.03,  -3.36,   0.23,   0.30,  -0.12,   2.72, 4.11, 4.10, 0.00, 0.00, 0.00, 1, 1, 12,  27.9333769, -80.7095404,     5.0, 2025,  4, 12, 19, 30, 38,        0,        0,   0,   0,   1.4,   0.7,   1.2,  0,  0,  0, 26, 40, 25,  0,  0,  0,  0, 39, 42,  0, 32,  0,  0, 38,  0, 27, 36,  0, 31,  0, 28, 34,  0,  0,  0,  0,  0,  0,  0
6, 11076, 1,Zephyr ,     0.17, 3,   boost,  165.24, 101445.00,   -9.98,    4.41,   34.35, 33.2, 4.11, 4.10, 4.10, 172.17,  -8.22,  -5.09,  90.25,  -9.54,  -7.02,   0.23,   0.30,  -0.13,   2.82, 4.11, 4.10, 0.00, 0.00, 0.00, 1, 1, 12,  27.9333769, -80.7095404,     5.0, 2025,  4, 12, 19, 30, 38,        0,        0,   0,   0,   1.4,   0.7,   1.2,  0,  0,  0, 26, 40, 25,  0,  0,  0,  0, 39, 42,  0, 32,  0,  0, 38,  0, 27, 36,  0, 31,  0, 28, 34,  0,  0,  0,  0,  0,  0,  0
6, 11076, 1,Zephyr ,     0.18, 3,   boost,  170.15, 101445.00,   -9.98,    4.41,   36.04, 33.2, 4.11, 4.10, 4.10, 175.36,   1.76,   0.40,  78.53, -17.11,  -4.58,   0.23,   0.30,  -0.13,   2.92, 4.11, 4.10, 0.00, 0.00, 0.00, 1, 1, 12,  27.9333769, -80.7095404,     5.0, 2025,  4, 12, 19, 30, 38,        0,        0,   0,   0,   1.4,   0.7,   1.2,  0,  0,  0, 26, 40, 25,  0,  0,  0,  0, 39, 42,  0, 32,  0,  0, 38,  0, 27, 36,  0, 31,  0, 28, 34,  0,  0,  0,  0,  0,  0,  0
6, 11076, 1,Zephyr ,     0.19, 3,   boost,  170.64, 101444.00,   -9.90,    4.49,   37.75, 33.2, 4.11, 4.10, 4.10, 177.30,   4.24,   2.82,  72.49, -15.83,  -0.92,   0.23,   0.30,  -0.13,   2.99, 4.11, 4.10, 0.00, 0.00, 0.00, 1, 1, 12,  27.9333769, -80.7095404,     5.0, 2025,  4, 12, 19, 30, 38,        0,        0,   0,   0,   1.4,   0.7,   1.2,  0,  0,  0, 26, 40, 25,  0,  0,  0,  0, 39, 42,  0, 32,  0,  0, 38,  0, 27, 36,  0, 31,  0, 28, 34,  0,  0,  0,  0,  0,  0,  0
6, 11076, 1,Zephyr ,     0.20, 3,   boost,  187.80, 101444.00,   -9.90,    4.49,   39.48, 33.2, 4.11, 4.10, 4.10, 179.81,  -5.55,  -4.61,  76.88, -18.51,   0.85,   0.23,   0.30,  -0.13,   3.07, 4.11, 4.10, 0.00, 0.00, 0.00, 1, 1, 12,  27.9333769, -80.7095404,     5.0, 2025,  4, 12, 19, 30, 38,        0,        0,   0,   0,   1.4,   0.7,   1.2,  0,  0,  0, 26, 40, 25,  0,  0,  0,  0, 39, 42,  0, 32,  0,  0, 38,  0, 27, 36,  0, 31,  0, 28, 34,  0,  0,  0,  0,  0,  0,  0
6, 11076, 1,Zephyr ,     0.21, 3,   boost,  166.22, 101432.00,   -8.90,    5.49,   41.21, 33.2, 4.11, 4.10, 4.10, 176.34,  -6.37,  -7.17,  44.53, -14.91,  -0.73,   0.23,   0.30,  -0.13,   3.14, 4.11, 4.10, 0.00, 0.00, 0.00, 1, 1, 12,  27.9333769, -80.7095404,     5.0, 2025,  4, 12, 19, 30, 38,        0,        0,   0,   0,   1.4,   0.7,   1.2,  0,  0,  0, 26, 40, 25,  0,  0,  0,  0, 39, 42,  0, 32,  0,  0, 38,  0, 27, 36,  0, 31,  0, 28, 34,  0,  0,  0,  0,  0,  0,  0
6, 11076, 1,Zephyr ,     0.22, 3,   boost,  172.60, 101432.00,   -8.90,    5.49,   42.95, 33.2, 4.11, 4.10, 4.10, 177.52,   1.53,  -6.44,  54.18, -13.94,  -3.60,   0.23,   0.29,  -0.14,   3.24, 4.11, 4.10, 0.00, 0.00, 0.00, 1, 1, 12,  27.9333769, -80.7095404,     5.0, 2025,  4, 12, 19, 30, 38,        0,        0,   0,   0,   1.4,   0.7,   1.2,  0,  0,  0, 26, 40, 25,  0,  0,  0,  0, 39, 42,  0, 32,  0,  0, 38,  0, 27, 36,  0, 31,  0, 28, 34,  0,  0,  0,  0,  0,  0,  0
6, 11076, 1,Zephyr ,     0.23, 3,   boost,  173.58, 101419.00,   -7.82,    6.57,   44.69, 33.2, 4.11, 4.10, 4.10, 180.49,  -3.13,  -4.80, 103.37,  -6.12,  -5.80,   0.23,   0.29,  -0.14,   3.32, 4.11, 4.10, 0.00, 0.00, 0.00, 1, 1, 12,  27.9333769, -80.7095404,     5.0, 2025,  4, 12, 19, 30, 38,        0,        0,   0,   0,   1.4,   0.7,   1.2,  0,  0,  0, 26, 40, 25,  0,  0,  0,  0, 39, 42,  0, 32,  0,  0, 38,  0, 27, 36,  0, 31,  0, 28, 34,  0,  0,  0,  0,  0,  0,  0
6, 11076, 1,Zephyr ,     0.24, 3,   boost,  174.56, 101419.00,   -7.82,    6.57,   46.43, 33.2, 4.11, 4.10, 4.10, 180.79,   1.68,   1.61, 154.46, -13.20, -10.68,   0.23,   0.29,  -0.15,   3.48, 4.11, 4.10, 0.00, 0.00, 0.00, 1, 1, 12,  27.9333769, -80.7095404,     5.0, 2025,  4, 12, 19, 30, 38,        0,        0,   0,   0,   1.4,   0.7,   1.2,  0,  0,  0, 26, 40, 25,  0,  0,  0,  0, 39, 42,  0, 32,  0,  0, 38,  0, 27, 36,  0, 31,  0, 28, 34,  0,  0,  0,  0,  0,  0,  0
6, 11076, 1,Zephyr ,     0.24, 3,   boost,  174.56, 101419.00,   -7.82,    6.57,   46.43, 33.2, 4.11, 4.10, 4.10, 180.79,   1.68,   1.61, 154.46, -13.20, -10.68,   0.23,   0.29,  -0.15,   3.48, 4.11, 4.10, 0.00, 0.00, 0.00, 1, 1, 12,  27.9333769, -80.7095404,     5.0, 2025,  4, 12, 19, 30, 38,        0,        0,   0,   0,   1.4,   0.7,   1.2,  0,  0,  0, 26, 40, 25,  0,  0,  0,  0, 39, 42,  0, 32,  0,  0, 38,  0, 27, 36,  0, 31,  0, 28, 34,  0,  0,  0,  0,  0,  0,  0
6, 11076, 1,Zephyr ,     0.24, 3,   boost,  174.56, 101419.00,   -7.82,    6.57,   46.43, 33.2, 4.11, 4.10, 4.10, 180.79,   1.68,   1.61, 154.46, -13.20, -10.68,   0.23,   0.29,  -0.15,   3.48, 4.11, 4.10, 0.00, 0.00, 0.00, 1, 1, 12,  27.9333769, -80.7095404,     5.0, 2025,  4, 12, 19, 30, 38,        0,        0,   0,   0,   1.4,   0.7,   1.2,  0,  0,  0, 26, 40, 25,  0,  0,  0,  0, 39, 42,  0, 32,  0,  0, 38,  0, 27, 36,  0, 31,  0, 28, 34,  0,  0,  0,  0,  0,  0,  0
6, 11076, 1,Zephyr ,     0.25, 3,   boost,  174.56, 101400.00,   -6.24,    8.15,   48.18, 33.2, 4.11, 4.10, 4.10, 183.15,  -1.63,   0.59, 121.07, -13.08, -10.86,   0.23,   0.28,  -0.15,   3.64, 4.11, 4.10, 0.00, 0.00, 0.00, 1, 1, 12,  27.9333899, -80.7095635,     7.0, 2025,  4, 12, 19, 30, 39,        3,        3, 302,  37,   1.4,   0.7,   1.2,  0,  0,  0, 25, 38, 22,  0,  0,  0,  0, 23, 39,  0, 32,  0,  0, 38,  0, 26, 22,  0, 31,  0, 32, 36,  0,  0,  0,  0,  0,  0,  0
6, 11076, 1,Zephyr ,     0.26, 3,   boost,  178.48, 101400.00,   -6.24,    8.15,   49.93, 33.2, 4.11, 4.10, 4.10, 184.16,  -2.72,  -1.31, 119.36, -15.71,  -9.83,   0.23,   0.28,  -0.15,   3.80, 4.11, 4.10, 0.00, 0.00, 0.00, 1, 1, 12,  27.9333899, -80.7095635,     7.0, 2025,  4, 12, 19, 30, 39,        3,        3, 302,  37,   1.4,   0.7,   1.2,  0,  0,  0, 25, 38, 22,  0,  0,  0,  0, 23, 39,  0, 32,  0,  0, 38,  0, 26, 22,  0, 31,  0, 32, 36,  0,  0,  0,  0,  0,  0,  0
6, 11076, 1,Zephyr ,     0.27, 3,   boost,  179.46, 101404.00,   -6.57,    7.82,   51.70, 33.2, 4.11, 4.10, 4.10, 184.89,   2.44,  -1.38,  56.43, -15.28,  -9.09,   0.23,   0.28,  -0.15,   3.95, 4.11, 4.10, 0.00, 0.00, 0.00, 1, 1, 12,  27.9333899, -80.7095635,     7.0, 2025,  4, 12, 19, 30, 39,        3,        3, 302,  37,   1.4,   0.7,   1.2,  0,  0,  0, 25, 38, 22,  0,  0,  0,  0, 23, 39,  0, 32,  0,  0, 38,  0, 26, 22,  0, 31,  0, 32, 36,  0,  0,  0,  0,  0,  0,  0
6, 11076, 1,Zephyr ,     0.28, 3,   boost,  177.99, 101404.00,   -6.57,    7.82,   53.48, 33.2, 4.11, 4.10, 4.10, 181.36,  -3.78,  -7.40,  69.25, -14.12, -10.93,   0.23,   0.28,  -0.15,   4.11, 4.11, 4.10, 0.00, 0.00, 0.00, 1, 1, 12,  27.9333899, -80.7095635,     7.0, 2025,  4, 12, 19, 30, 39,        3,        3, 302,  37,   1.4,   0.7,   1.2,  0,  0,  0, 25, 38, 22,  0,  0,  0,  0, 23, 39,  0, 32,  0,  0, 38,  0, 26, 22,  0, 31,  0, 32, 36,  0,  0,  0,  0,  0,  0,  0
6, 11076, 1,Zephyr ,     0.29, 3,   boost,  177.50, 101380.00,   -4.58,    9.81,   55.26, 33.2, 4.11, 4.10, 4.10, 188.63,  -3.59,  -1.88,  24.02, -12.47, -11.90,   0.22,   0.28,  -0.15,   4.28, 4.11, 4.10, 0.00, 0.00, 0.00, 1, 1, 12,  27.9333899, -80.7095635,     7.0, 2025,  4, 12, 19, 30, 39,        3,        3, 302,  37,   1.4,   0.7,   1.2,  0,  0,  0, 25, 38, 22,  0,  0,  0,  0, 23, 39,  0, 32,  0,  0, 38,  0, 26, 22,  0, 31,  0, 32, 36,  0,  0,  0,  0,  0,  0,  0
6, 11076, 1,Zephyr ,     0.30, 3,   boost,  179.95, 101380.00,   -4.58,    9.81,   57.05, 33.2, 4.11, 4.10, 4.10, 188.49,  -1.11,  -8.94,  23.72,  -6.80, -14.34,   0.22,   0.28,  -0.15,   4.44, 4.11, 4.10, 0.00, 0.00, 0.00, 1, 1, 12,  27.9333899, -80.7095635,     7.0, 2025,  4, 12, 19, 30, 39,        3,        3, 302,  37,   1.4,   0.7,   1.2,  0,  0,  0, 25, 38, 22,  0,  0,  0,  0, 23, 39,  0, 32,  0,  0, 38,  0, 26, 22,  0, 31,  0, 32, 36,  0,  0,  0,  0,  0,  0,  0
6, 11076, 1,Zephyr ,     0.31, 3,   boost,  181.42, 101365.00,   -3.33,   11.06,   58.84, 33.2, 4.11, 4.10, 4.10, 189.66,  -3.70,  -4.93,  21.16,  -3.99, -15.62,   0.22,   0.28,  -0.15,   4.59, 4.11, 4.10, 0.00, 0.00, 0.00, 1, 1, 12,  27.9333899, -80.7095635,     7.0, 2025,  4, 12, 19, 30, 39,        3,        3, 302,  37,   1.4,   0.7,   1.2,  0,  0,  0, 25, 38, 22,  0,  0,  0,  0, 23, 39,  0, 32,  0,  0, 38,  0, 26, 22,  0, 31,  0, 32, 36,  0,  0,  0,  0,  0,  0,  0
6, 11076, 1,Zephyr ,     0.32, 3,   boost,  179.95, 101365.00,   -3.33,   11.06,   60.64, 33.2, 4.11, 4.10, 4.10, 189.77,  -3.11,  -0.67,  21.58,  -2.89, -16.91,   0.22,   0.28,  -0.15,   4.76, 4.11, 4.10, 0.00, 0.00, 0.00, 1, 1, 12,  27.9333899, -80.7095635,     7.0, 2025,  4, 12, 19, 30, 39,        3,        3, 302,  37,   1.4,   0.7,   1.2,  0,  0,  0, 25, 38, 22,  0,  0,  0,  0, 23, 39,  0, 32,  0,  0, 38,  0, 26, 22,  0, 31,  0, 32, 36,  0,  0,  0,  0,  0,  0,  0
6, 11076, 1,Zephyr ,     0.33, 3,   boost,  179.95, 101354.00,   -2.41,   11.98,   62.44, 33.2, 4.11, 4.10, 4.10, 190.56,   1.06,  -1.81,  22.80,  -5.70, -15.62,   0.22,   0.28,  -0.15,   4.92, 4.11, 4.10, 0.00, 0.00, 0.00, 1, 1, 12,  27.9333899, -80.7095635,     7.0, 2025,  4, 12, 19, 30, 39,        3,        3, 302,  37,   1.4,   0.7,   1.2,  0,  0,  0, 25, 38, 22,  0,  0,  0,  0, 23, 39,  0, 32,  0,  0, 38,  0, 26, 22,  0, 31,  0, 32, 36,  0,  0,  0,  0,  0,  0,  0
6, 11076, 1,Zephyr ,     0.34, 3,   boost,  181.42, 101354.00,   -2.41,   11.98,   64.25, 33.2, 4.11, 4.10, 4.10, 190.77,  -1.97,   0.17,  20.91, -10.88, -14.77,   0.22,   0.28,  -0.15,   5.10, 4.11, 4.11, 0.00, 0.00, 0.00, 1, 1, 12,  27.9333899, -80.7095635,     7.0, 2025,  4, 12, 19, 30, 39,        3,        3, 302,  37,   1.4,   0.7,   1.2,  0,  0,  0, 25, 38, 22,  0,  0,  0,  0, 23, 39,  0, 32,  0,  0, 38,  0, 26, 22,  0, 31,  0, 32, 36,  0,  0,  0,  0,  0,  0,  0
6, 11076, 1,Zephyr ,     0.34, 3,   boost,  181.42, 101354.00,   -2.41,   11.98,   64.25, 33.2, 4.11, 4.10, 4.10, 190.77,  -1.97,   0.17,  20.91, -10.88, -14.77,   0.22,   0.28,  -0.15,   5.10, 4.11, 4.11, 0.00, 0.00, 0.00, 1, 1, 12,  27.9333899, -80.7095635,     7.0, 2025,  4, 12, 19, 30, 39,        3,        3, 302,  37,   1.4,   0.7,   1.2,  0,  0,  0, 25, 38, 22,  0,  0,  0,  0, 23, 39,  0, 32,  0,  0, 38,  0, 26, 22,  0, 31,  0, 32, 36,  0,  0,  0,  0,  0,  0,  0
6, 11076, 1,Zephyr ,     0.35, 3,   boost,  184.37, 101344.00,   -1.58,   12.81,   66.06, 33.2, 4.11, 4.10, 4.10, 191.41,  -3.92,  -2.08,  17.80, -12.65, -15.69,   0.22,   0.29,  -0.15,   5.30, 4.11, 4.11, 0.00, 0.00, 0.00, 1, 1, 12,  27.9333899, -80.7095635,     7.0, 2025,  4, 12, 19, 30, 39,        3,        3, 302,  37,   1.4,   0.7,   1.2,  0,  0,  0, 25, 38, 22,  0,  0,  0,  0, 23, 39,  0, 32,  0,  0, 38,  0, 26, 22,  0, 31,  0, 32, 36,  0,  0,  0,  0,  0,  0,  0
6, 11076, 1,Zephyr ,     0.36, 3,   boost,  183.38, 101344.00,   -1.58,   12.81,   67.88, 33.2, 4.11, 4.10, 4.10, 192.40,  -2.39,  -6.35,  14.20, -12.53, -17.82,   0.22,   0.29,  -0.15,   5.52, 4.11, 4.11, 0.00, 0.00, 0.00, 1, 1, 12,  27.9333899, -80.7095635,     7.0, 2025,  4, 12, 19, 30, 39,        3,        3, 302,  37,   1.4,   0.7,   1.2,  0,  0,  0, 25, 38, 22,  0,  0,  0,  0, 23, 39,  0, 32,  0,  0, 38,  0, 26, 22,  0, 31,  0, 32, 36,  0,  0,  0,  0,  0,  0,  0
6, 11076, 1,Zephyr ,     0.37, 3,   boost,  182.89, 101331.00,   -0.50,   13.89,   69.70, 33.2, 4.11, 4.10, 4.10, 192.74,  -3.03,  -5.14,  10.41, -10.52, -19.84,   0.22,   0.29,  -0.15,   5.74, 4.11, 4.11, 0.00, 0.00, 0.00, 1, 1, 12,  27.9333899, -80.7095635,     7.0, 2025,  4, 12, 19, 30, 39,        3,        3, 302,  37,   1.4,   0.7,   1.2,  0,  0,  0, 25, 38, 22,  0,  0,  0,  0, 23, 39,  0, 32,  0,  0, 38,  0, 26, 22,  0, 31,  0, 32, 36,  0,  0,  0,  0,  0,  0,  0
6, 11076, 1,Zephyr ,     0.38, 3,   boost,  183.38, 101331.00,   -0.50,   13.89,   71.53, 33.2, 4.11, 4.10, 4.10, 193.37,  -3.46,  -3.58,   2.97,  -7.28, -22.09,   0.22,   0.29,  -0.15,   5.97, 4.11, 4.11, 0.00, 0.00, 0.00, 1, 1, 12,  27.9333899, -80.7095635,     7.0, 2025,  4, 12, 19, 30, 39,        3,        3, 302,  37,   1.4,   0.7,   1.2,  0,  0,  0, 25, 38, 22,  0,  0,  0,  0, 23, 39,  0, 32,  0,  0, 38,  0, 26, 22,  0, 31,  0, 32, 36,  0,  0,  0,  0,  0,  0,  0
6, 11076, 1,Zephyr ,     0.39, 3,   boost,  183.87, 101303.00,    1.83,   16.22,   73.36, 33.2, 4.11, 4.10, 4.10, 193.83,  -1.77,  -5.11,  -0.33,  -4.78, -22.70,   0.22,   0.29,  -0.15,   6.19, 4.11, 4.11, 0.00, 0.00, 0.00, 1, 1, 12,  27.9333899, -80.7095635,     7.0, 2025,  4, 12, 19, 30, 39,        3,        3, 302,  37,   1.4,   0.7,   1.2,  0,  0,  0, 25, 38, 22,  0,  0,  0,  0, 23, 39,  0, 32,  0,  0, 38,  0, 26, 22,  0, 31,  0, 32, 36,  0,  0,  0,  0,  0,  0,  0
6, 11076, 1,Zephyr ,     0.40, 3,   boost,  186.33, 101303.00,    1.83,   16.22,   75.19, 33.2, 4.11, 4.10, 4.10, 193.81,  -0.93,  -2.45,   0.22,  -6.12, -21.73,   0.22,   0.29,  -0.15,   6.42, 4.11, 4.11, 0.00, 0.00, 0.00, 1, 1, 12,  27.9333899, -80.7095635,     7.0, 2025,  4, 12, 19, 30, 39,        3,        3, 302,  37,   1.4,   0.7,   1.2,  0,  0,  0, 25, 38, 22,  0,  0,  0,  0, 23, 39,  0, 32,  0,  0, 38,  0, 26, 22,  0, 31,  0, 32, 36,  0,  0,  0,  0,  0,  0,  0
6, 11076, 1,Zephyr ,     0.41, 3,   boost,  184.86, 101289.00,    3.00,   17.39,   77.03, 33.2, 4.11, 4.10, 4.10, 194.29,  -0.80,  -0.22,   0.40,  -7.41, -20.39,   0.22,   0.29,  -0.15,   6.63, 4.11, 4.11, 0.00, 0.00, 0.00, 1, 1, 12,  27.9333899, -80.7095635,     7.0, 2025,  4, 12, 19, 30, 39,        3,        3, 302,  37,   1.4,   0.7,   1.2,  0,  0,  0, 25, 38, 22,  0,  0,  0,  0, 23, 39,  0, 32,  0,  0, 38,  0, 26, 22,  0, 31,  0, 32, 36,  0,  0,  0,  0,  0,  0,  0
6, 11076, 1,Zephyr ,     0.42, 3,   boost,  183.87, 101289.00,    3.00,   17.39,   78.86, 33.2, 4.11, 4.10, 4.10, 194.69,  -1.95,  -4.04,   0.77,  -9.73, -19.53,   0.22,   0.29,  -0.15,   6.85, 4.11, 4.11, 0.00, 0.00, 0.00, 1, 1, 12,  27.9333899, -80.7095635,     7.0, 2025,  4, 12, 19, 30, 39,        3,        3, 302,  37,   1.4,   0.7,   1.2,  0,  0,  0, 25, 38, 22,  0,  0,  0,  0, 23, 39,  0, 32,  0,  0, 38,  0, 26, 22,  0, 31,  0, 32, 36,  0,  0,  0,  0,  0,  0,  0
6, 11076, 1,Zephyr ,     0.43, 3,   boost,  185.84, 101279.00,    3.83,   18.22,   80.70, 33.2, 4.11, 4.10, 4.10, 195.02,  -3.06,  -2.11,  -1.73, -12.04, -21.18,   0.22,   0.29,  -0.15,   7.09, 4.11, 4.11, 0.00, 0.00, 0.00, 1, 1, 12,  27.9333899, -80.7095635,     7.0, 2025,  4, 12, 19, 30, 39,        3,        3, 302,  37,   1.4,   0.7,   1.2,  0,  0,  0, 25, 38, 22,  0,  0,  0,  0, 23, 39,  0, 32,  0,  0, 38,  0, 26, 22,  0, 31,  0, 32, 36,  0,  0,  0,  0,  0,  0,  0
6, 11076, 1,Zephyr ,     0.44, 3,   boost,  185.84, 101279.00,    3.83,   18.22,   82.54, 33.2, 4.11, 4.10, 4.10, 195.08,  -3.50,  -4.61,  -3.99, -11.13, -23.80,   0.22,   0.30,  -0.15,   7.36, 4.11, 4.11, 0.00, 0.00, 0.00, 1, 1, 12,  27.9333899, -80.7095635,     7.0, 2025,  4, 12, 19, 30, 39,        3,        3, 302,  37,   1.4,   0.7,   1.2,  0,  0,  0, 25, 38, 22,  0,  0,  0,  0, 23, 39,  0, 32,  0,  0, 38,  0, 26, 22,  0, 31,  0, 32, 36,  0,  0,  0,  0,  0,  0,  0
6, 11076, 1,Zephyr ,     0.45, 3,   boost,  184.86, 101253.00,    6.00,   20.39,   84.38, 33.2, 4.11, 4.10, 4.10, 195.84,  -2.02,  -5.77,  -6.00, -10.15, -26.43,   0.22,   0.30,  -0.15,   7.64, 4.11, 4.11, 0.00, 0.00, 0.00, 1, 1, 12,  27.9333899, -80.7095635,     7.0, 2025,  4, 12, 19, 30, 39,        3,        3, 302,  37,   1.4,   0.7,   1.2,  0,  0,  0, 25, 38, 22,  0,  0,  0,  0, 23, 39,  0, 32,  0,  0, 38,  0, 26, 22,  0, 31,  0, 32, 36,  0,  0,  0,  0,  0,  0,  0
6, 11076, 1,Zephyr ,     0.46, 3,   boost,  186.33, 101253.00,    6.00,   20.39,   86.22, 33.2, 4.11, 4.10, 4.10, 196.36,  -1.29,  -3.21,  -6.98,  -8.14, -27.65,   0.22,   0.30,  -0.15,   7.92, 4.11, 4.11, 0.00, 0.00, 0.00, 1, 1, 12,  27.9333899, -80.7095635,     7.0, 2025,  4, 12, 19, 30, 39,        3,        3, 302,  37,   1.4,   0.7,   1.2,  0,  0,  0, 25, 38, 22,  0,  0,  0,  0, 23, 39,  0, 32,  0,  0, 38,  0, 26, 22,  0, 31,  0, 32, 36,  0,  0,  0,  0,  0,  0,  0
6, 11076, 1,Zephyr ,     0.47, 3,   boost,  186.33, 101234.00,    7.58,   21.97,   88.06, 33.2, 4.11, 4.10, 4.10, 196.59,  -1.72,  -3.60,  -5.82,  -7.71, -27.16,   0.22,   0.30,  -0.15,   8.20, 4.11, 4.11, 0.00, 0.00, 0.00, 1, 1, 12,  27.9333899, -80.7095635,     7.0, 2025,  4, 12, 19, 30, 39,        3,        3, 302,  37,   1.4,   0.7,   1.2,  0,  0,  0, 25, 38, 22,  0,  0,  0,  0, 23, 39,  0, 32,  0,  0, 38,  0, 26, 22,  0, 31,  0, 32, 36,  0,  0,  0,  0,  0,  0,  0
6, 11076, 1,Zephyr ,     0.48, 3,   boost,  186.33, 101234.00,    7.58,   21.97,   89.91, 33.2, 4.11, 4.10, 4.10, 196.82,   1.24,  -3.28,  -3.44,  -8.50, -25.70,   0.21,   0.30,  -0.15,   8.47, 4.11, 4.11, 0.00, 0.00, 0.00, 1, 1, 12,  27.9333899, -80.7095635,     7.0, 2025,  4, 12, 19, 30, 39,        3,        3, 302,  37,   1.4,   0.7,   1.2,  0,  0,  0, 25, 38, 22,  0,  0,  0,  0, 23, 39,  0, 32,  0,  0, 38,  0, 26, 22,  0, 31,  0, 32, 36,  0,  0,  0,  0,  0,  0,  0
6, 11076, 1,Zephyr ,     0.49, 3,   boost,  188.29, 101219.00,    8.83,   23.22,   91.76, 33.2, 4.11, 4.10, 4.10, 197.47,  -1.17,  -2.86,  -1.30,  -9.54, -24.35,   0.21,   0.31,  -0.15,   8.73, 4.11, 4.11, 0.00, 0.00, 0.00, 1, 1, 12,  27.9333899, -80.7095635,     7.0, 2025,  4, 12, 19, 30, 39,        3,        3, 302,  37,   1.4,   0.7,   1.2,  0,  0,  0, 25, 38, 22,  0,  0,  0,  0, 23, 39,  0, 32,  0,  0, 38,  0, 26, 22,  0, 31,  0, 32, 36,  0,  0,  0,  0,  0,  0,  0
6, 11076, 1,Zephyr ,     0.50, 3,   boost,  187.80, 101219.00,    8.83,   23.22,   93.61, 33.2, 4.11, 4.10, 4.10, 197.63,  -1.90,  -4.02,  -0.39, -10.70, -24.35,   0.21,   0.31,  -0.14,   9.00, 4.11, 4.11, 0.00, 0.00, 0.00, 1, 1, 12,  27.9333899, -80.7095635,     7.0, 2025,  4, 12, 19, 30, 39,        3,        3, 302,  37,   1.4,   0.7,   1.2,  0,  0,  0, 25, 38, 22,  0,  0,  0,  0, 23, 39,  0, 32,  0,  0, 38,  0, 26, 22,  0, 31,  0, 32, 36,  0,  0,  0,  0,  0,  0,  0
6, 11076, 1,Zephyr ,     0.51, 3,   boost,  187.31, 101194.00,   10.91,   25.30,   95.46, 33.2, 4.11, 4.10, 4.10, 198.12,  -1.11,  -4.56,  -1.98, -10.52, -26.61,   0.21,   0.31,  -0.14,   9.28, 4.11, 4.11, 0.00, 0.00, 0.00, 1, 1, 12,  27.9333899, -80.7095635,     7.0, 2025,  4, 12, 19, 30, 39,        3,        3, 302,  37,   1.4,   0.7,   1.2,  0,  0,  0, 25, 38, 22,  0,  0,  0,  0, 23, 39,  0, 32,  0,  0, 38,  0, 26, 22,  0, 31,  0, 32, 36,  0,  0,  0,  0,  0,  0,  0
6, 11076, 1,Zephyr ,     0.52, 3,   boost,  188.29, 101194.00,   10.91,   25.30,   97.31, 33.2, 4.11, 4.10, 4.10, 197.98,  -2.48,  -4.58,  -3.14,  -9.79, -28.75,   0.21,   0.31,  -0.14,   9.58, 4.11, 4.11, 0.00, 0.00, 0.00, 1, 1, 12,  27.9333899, -80.7095635,     7.0, 2025,  4, 12, 19, 30, 39,        3,        3, 302,  37,   1.4,   0.7,   1.2,  0,  0,  0, 25, 38, 22,  0,  0,  0,  0, 23, 39,  0, 32,  0,  0, 38,  0, 26, 22,  0, 31,  0, 32, 36,  0,  0,  0,  0,  0,  0,  0
6, 11076, 1,Zephyr ,     0.53, 3,   boost,  188.78, 101180.00,   12.08,   26.47,   99.17, 33.2, 4.11, 4.10, 4.10, 198.62,   0.01,  -4.43,  -3.69,  -9.73, -29.85,   0.21,   0.31,  -0.14,   9.90, 4.11, 4.11, 0.00, 0.00, 0.00, 1, 1, 12,  27.9333899, -80.7095635,     7.0, 2025,  4, 12, 19, 30, 39,        3,        3, 302,  37,   1.4,   0.7,   1.2,  0,  0,  0, 25, 38, 22,  0,  0,  0,  0, 23, 39,  0, 32,  0,  0, 38,  0, 26, 22,  0, 31,  0, 32, 36,  0,  0,  0,  0,  0,  0,  0
6, 11076, 1,Zephyr ,     0.54, 3,   boost,  188.29, 101180.00,   12.08,   26.47,  101.03, 33.2, 4.11, 4.10, 4.10, 199.23,   0.70,  -4.29,  -2.89,  -9.42, -29.54,   0.21,   0.31,  -0.14,  10.20, 4.11, 4.11, 0.00, 0.00, 0.00, 1, 1, 12,  27.9333899, -80.7095635,     7.0, 2025,  4, 12, 19, 30, 39,        3,        3, 302,  37,   1.4,   0.7,   1.2,  0,  0,  0, 25, 38, 22,  0,  0,  0,  0, 23, 39,  0, 32,  0,  0, 38,  0, 26, 22,  0, 31,  0, 32, 36,  0,  0,  0,  0,  0,  0,  0
6, 11076, 1,Zephyr ,     0.55, 3,   boost,  191.23, 101149.00,   14.66,   29.05,  102.89, 33.2, 4.11, 4.10, 4.10, 199.25,   0.46,  -3.41,  -0.27, -10.27, -28.69,   0.21,   0.32,  -0.14,  10.51, 4.11, 4.11, 0.00, 0.00, 0.00, 1, 1, 12,  27.9333899, -80.7095635,     7.0, 2025,  4, 12, 19, 30, 39,        3,        3, 302,  37,   1.4,   0.7,   1.2,  0,  0,  0, 25, 38, 22,  0,  0,  0,  0, 23, 39,  0, 32,  0,  0, 38,  0, 26, 22,  0, 31,  0, 32, 36,  0,  0,  0,  0,  0,  0,  0
